{
"type": "FeatureCollection",
"crs": { "type": "name", "properties": { "name": "urn:ogc:def:crs:OGC:1.3:CRS84" } },
                                                                                
"features": [
{ "type": "Feature", "properties": { "poi_id": "http:\/\/www.futouring.com\/download\/dataset\/futouring_pois.rdf#turismoCulturale_POI_885", "poi _ category _ term": "POI_InteresseArchitettonico", "poi_label_term": "Sanctuary of the SS. Trinita' or Sanctuary of Split Mountain - Gaeta" }, "geometry": { "type": "Point", "coordinates": [ 13.570915, 41.20586 ] } },
{ "type": "Feature", "properties": { "poi_id": "http:\/\/www.futouring.com\/download\/dataset\/futouring_pois.rdf#turismoCulturale_POI_886", "poi _ category _ term": "POI_InteresseArchitettonico", "poi_label_term": "Grotta del Turco - Gaeta" }, "geometry": { "type": "Point", "coordinates": [ 13.570915, 41.20586 ] } },
{ "type": "Feature", "properties": { "poi_id": "http:\/\/www.futouring.com\/download\/dataset\/futouring_pois.rdf#turismoCulturale_POI_890", "poi _ category _ term": "POI_InteresseArchitettonico", "poi_label_term": "Carolina Gunpowder Magazine and Borboun fortifications - Gaeta" }, "geometry": { "type": "Point", "coordinates": [ 13.574697, 41.20594 ] } },
{ "type": "Feature", "properties": { "poi_id": "http:\/\/www.futouring.com\/download\/dataset\/futouring_pois.rdf#turismoCulturale_POI_709", "poi _ category _ term": "POI_InteresseArcheologico", "poi_label_term": "Mausoleum of Lucio Munazio Planco - Gaeta" }, "geometry": { "type": "Point", "coordinates": [ 13.57693, 41.20723 ] } },
{ "type": "Feature", "properties": { "poi_id": "http:\/\/www.futouring.com\/download\/dataset\/futouring_pois.rdf#turismoCulturale_POI_883", "poi _ category _ term": "POI_InteresseArchitettonico", "poi_label_term": "Church of S. Domenico - Gaeta" }, "geometry": { "type": "Point", "coordinates": [ 13.587779, 41.207767 ] } },
{ "type": "Feature", "properties": { "poi_id": "http:\/\/www.futouring.com\/download\/dataset\/futouring_pois.rdf#turismoCulturale_POI_217", "poi _ category _ term": "Castello", "poi_label_term": "Angioino-Aragonese Castle - Gaeta" }, "geometry": { "type": "Point", "coordinates": [ 13.58487, 41.208115 ] } },
{ "type": "Feature", "properties": { "poi_id": "http:\/\/www.futouring.com\/download\/dataset\/futouring_pois.rdf#turismoCulturale_POI_832", "poi _ category _ term": "Chiesa", "poi_label_term": "Cathedral of Santi Erasmo e Marciano - Gaeta" }, "geometry": { "type": "Point", "coordinates": [ 13.586918, 41.2087 ] } },
{ "type": "Feature", "properties": { "poi_id": "http:\/\/www.futouring.com\/download\/dataset\/futouring_pois.rdf#turismoCulturale_POI_840", "poi _ category _ term": "POI_InteresseArchitettonico", "poi_label_term": "Chiesa di Santa Lucia - Gaeta" }, "geometry": { "type": "Point", "coordinates": [ 13.588878, 41.208893 ] } },
{ "type": "Feature", "properties": { "poi_id": "http:\/\/www.futouring.com\/download\/dataset\/futouring_pois.rdf#turismoCulturale_POI_895", "poi _ category _ term": "Museo", "poi_label_term": "Museo Diocesano e della Religiosità del Parco dei Monti Aurunci - Gaeta" }, "geometry": { "type": "Point", "coordinates": [ 13.586357, 41.20911 ] } },
{ "type": "Feature", "properties": { "poi_id": "http:\/\/www.futouring.com\/download\/dataset\/futouring_pois.rdf#turismoCulturale_POI_839", "poi _ category _ term": "POI_InteresseArchitettonico", "poi_label_term": "Chiesa di Santa Maria della Sorresca - Gaeta" }, "geometry": { "type": "Point", "coordinates": [ 13.585576, 41.209156 ] } },
{ "type": "Feature", "properties": { "poi_id": "http:\/\/www.futouring.com\/download\/dataset\/futouring_pois.rdf#turismoCulturale_POI_842", "poi _ category _ term": "Chiesa", "poi_label_term": "Church of San Giovanni a Mare - Gaeta" }, "geometry": { "type": "Point", "coordinates": [ 13.588436, 41.20917 ] } },
{ "type": "Feature", "properties": { "poi_id": "http:\/\/www.futouring.com\/download\/dataset\/futouring_pois.rdf#turismoCulturale_POI_833", "poi _ category _ term": "POI_InteresseArchitettonico", "poi_label_term": "Palazzo De Vio - Gaeta" }, "geometry": { "type": "Point", "coordinates": [ 13.58452, 41.209293 ] } },
{ "type": "Feature", "properties": { "poi_id": "http:\/\/www.futouring.com\/download\/dataset\/futouring_pois.rdf#turismoCulturale_POI_834", "poi _ category _ term": "POI_InteresseArchitettonico", "poi_label_term": "Former Palazzo Comunale - Gaeta" }, "geometry": { "type": "Point", "coordinates": [ 13.58452, 41.209293 ] } },
{ "type": "Feature", "properties": { "poi_id": "http:\/\/www.futouring.com\/download\/dataset\/futouring_pois.rdf#turismoCulturale_POI_835", "poi _ category _ term": "POI_InteresseArchitettonico", "poi_label_term": "Pinacoteca Comunale di Arte Contemporanea Giovanni da Gaeta - Gaeta" }, "geometry": { "type": "Point", "coordinates": [ 13.58156, 41.209614 ] } },
{ "type": "Feature", "properties": { "poi_id": "http:\/\/www.futouring.com\/download\/dataset\/futouring_pois.rdf#turismoCulturale_POI_887", "poi _ category _ term": "POI_InteresseArchitettonico", "poi_label_term": "Santuario della Madonna della Catena - Gaeta" }, "geometry": { "type": "Point", "coordinates": [ 13.551987, 41.21038 ] } },
{ "type": "Feature", "properties": { "poi_id": "http:\/\/www.futouring.com\/download\/dataset\/futouring_pois.rdf#turismoCulturale_POI_896", "poi _ category _ term": "POI_InteressePaesaggistico", "poi_label_term": "Spiaggia di Serapo - Gaeta" }, "geometry": { "type": "Point", "coordinates": [ 13.56294, 41.21075 ] } },
{ "type": "Feature", "properties": { "poi_id": "http:\/\/www.futouring.com\/download\/dataset\/futouring_pois.rdf#turismoCulturale_POI_838", "poi _ category _ term": "POI_InteresseArcheologico", "poi_label_term": "Church of San Francesco - Gaeta" }, "geometry": { "type": "Point", "coordinates": [ 13.580791, 41.210835 ] } },
{ "type": "Feature", "properties": { "poi_id": "http:\/\/www.futouring.com\/download\/dataset\/futouring_pois.rdf#turismoCulturale_POI_837", "poi _ category _ term": "POI_InteresseCulturale", "poi_label_term": "Ruota degli esposti - Gaeta" }, "geometry": { "type": "Point", "coordinates": [ 13.581923, 41.21115 ] } },
{ "type": "Feature", "properties": { "poi_id": "http:\/\/www.futouring.com\/download\/dataset\/futouring_pois.rdf#turismoCulturale_POI_884", "poi _ category _ term": "POI_InteresseArchitettonico", "poi_label_term": "Ex Caserma Cosenz, spazio espositivo - Gaeta" }, "geometry": { "type": "Point", "coordinates": [ 13.581256, 41.211735 ] } },
{ "type": "Feature", "properties": { "poi_id": "http:\/\/www.futouring.com\/download\/dataset\/futouring_pois.rdf#turismoCulturale_POI_836", "poi _ category _ term": "Chiesa", "poi_label_term": "Church of the Santissima Annunziata and the Golden Grotto - Gaeta" }, "geometry": { "type": "Point", "coordinates": [ 13.580947, 41.21215 ] } },
{ "type": "Feature", "properties": { "poi_id": "http:\/\/www.futouring.com\/download\/dataset\/futouring_pois.rdf#turismoCulturale_POI_711", "poi _ category _ term": "POI_InteresseCulturale", "poi_label_term": "Quartiere S. Erasmo - Gaeta" }, "geometry": { "type": "Point", "coordinates": [ 13.571907, 41.21221 ] } },
{ "type": "Feature", "properties": { "poi_id": "http:\/\/www.futouring.com\/download\/dataset\/futouring_pois.rdf#turismoCulturale_POI_880", "poi _ category _ term": "Chiesa", "poi_label_term": "Church of S. Giuda Taddeo or S. Onofrio - Gaeta" }, "geometry": { "type": "Point", "coordinates": [ 13.580569, 41.21228 ] } },
{ "type": "Feature", "properties": { "poi_id": "http:\/\/www.futouring.com\/download\/dataset\/futouring_pois.rdf#turismoCulturale_POI_894", "poi _ category _ term": "POI", "poi_label_term": "History and Culture Centre Museum - Gaeta" }, "geometry": { "type": "Point", "coordinates": [ 13.580067, 41.212807 ] } },
{ "type": "Feature", "properties": { "poi_id": "http:\/\/www.futouring.com\/download\/dataset\/futouring_pois.rdf#turismoCulturale_POI_712", "poi _ category _ term": "POI_InteresseArchitettonico", "poi_label_term": "Porta dell'Avanzata - Gaeta" }, "geometry": { "type": "Point", "coordinates": [ 13.573863, 41.212936 ] } },
{ "type": "Feature", "properties": { "poi_id": "http:\/\/www.futouring.com\/download\/dataset\/futouring_pois.rdf#turismoCulturale_POI_717", "poi _ category _ term": "POI_InteresseArchitettonico", "poi_label_term": "Porta di Carlo V or Porta di Terra - Gaeta" }, "geometry": { "type": "Point", "coordinates": [ 13.576382, 41.213196 ] } },
{ "type": "Feature", "properties": { "poi_id": "http:\/\/www.futouring.com\/download\/dataset\/futouring_pois.rdf#turismoCulturale_POI_888", "poi _ category _ term": "POI_InteressePaesaggistico", "poi_label_term": "Parco Regionale Riviera di Ulisse - Area protetta di Monte Orlando - Gaeta" }, "geometry": { "type": "Point", "coordinates": [ 13.57181, 41.21334 ] } },
{ "type": "Feature", "properties": { "poi_id": "http:\/\/www.futouring.com\/download\/dataset\/futouring_pois.rdf#turismoCulturale_POI_882", "poi _ category _ term": "POI_InteresseArchitettonico", "poi_label_term": "Chiesa di S. Maria di Porto Salvo (detta degli Scalzi) - Gaeta" }, "geometry": { "type": "Point", "coordinates": [ 13.568976, 41.218994 ] } },
{ "type": "Feature", "properties": { "poi_id": "http:\/\/www.futouring.com\/download\/dataset\/futouring_pois.rdf#turismoCulturale_POI_1075", "poi _ category _ term": "POI_InteressePaesaggistico", "poi_label_term": "Grotta del Fossellone - San Felice Circeo" }, "geometry": { "type": "Point", "coordinates": [ 13.07339, 41.222317 ] } },
{ "type": "Feature", "properties": { "poi_id": "http:\/\/www.futouring.com\/download\/dataset\/futouring_pois.rdf#turismoCulturale_POI_1080", "poi _ category _ term": "Castello", "poi_label_term": "Torre Cervia - San Felice Circeo" }, "geometry": { "type": "Point", "coordinates": [ 13.06437, 41.22396 ] } },
{ "type": "Feature", "properties": { "poi_id": "http:\/\/www.futouring.com\/download\/dataset\/futouring_pois.rdf#turismoCulturale_POI_1073", "poi _ category _ term": "POI_InteressePaesaggistico", "poi_label_term": "Goats’ Cave - San Felice Circeo" }, "geometry": { "type": "Point", "coordinates": [ 13.08295, 41.22403 ] } },
{ "type": "Feature", "properties": { "poi_id": "http:\/\/www.futouring.com\/download\/dataset\/futouring_pois.rdf#turismoCulturale_POI_710", "poi _ category _ term": "POI_InteresseArcheologico", "poi_label_term": "Roman Mausoleum, also known as the Maritime Cemetery - Gaeta" }, "geometry": { "type": "Point", "coordinates": [ 13.562815, 41.224358 ] } },
{ "type": "Feature", "properties": { "poi_id": "http:\/\/www.futouring.com\/download\/dataset\/futouring_pois.rdf#turismoCulturale_POI_1082", "poi _ category _ term": "Castello", "poi_label_term": "Torre Fico - San Felice Circeo" }, "geometry": { "type": "Point", "coordinates": [ 13.08926, 41.224667 ] } },
{ "type": "Feature", "properties": { "poi_id": "http:\/\/www.futouring.com\/download\/dataset\/futouring_pois.rdf#turismoCulturale_POI_1074", "poi _ category _ term": "POI_InteressePaesaggistico", "poi_label_term": "Guattari Cave - San Felice Circeo" }, "geometry": { "type": "Point", "coordinates": [ 13.09094, 41.22565 ] } },
{ "type": "Feature", "properties": { "poi_id": "http:\/\/www.futouring.com\/download\/dataset\/futouring_pois.rdf#turismoCulturale_POI_1099", "poi _ category _ term": "POI_InteresseArcheologico", "poi_label_term": "Santuario della Dea Marica, resti sul Garigliano - Scauri" }, "geometry": { "type": "Point", "coordinates": [ 13.7592, 41.225956 ] } },
{ "type": "Feature", "properties": { "poi_id": "http:\/\/www.futouring.com\/download\/dataset\/futouring_pois.rdf#turismoCulturale_POI_841", "poi _ category _ term": "Chiesa", "poi_label_term": "Church of S. Carlo Borromeo - Gaeta" }, "geometry": { "type": "Point", "coordinates": [ 13.566549, 41.22868 ] } },
{ "type": "Feature", "properties": { "poi_id": "http:\/\/www.futouring.com\/download\/dataset\/futouring_pois.rdf#turismoCulturale_POI_1085", "poi _ category _ term": "POI_InteresseArcheologico", "poi_label_term": "Acropoli - San Felice Circeo" }, "geometry": { "type": "Point", "coordinates": [ 13.081241, 41.231163 ] } },
{ "type": "Feature", "properties": { "poi_id": "http:\/\/www.futouring.com\/download\/dataset\/futouring_pois.rdf#turismoCulturale_POI_1086", "poi _ category _ term": "POI_InteresseArcheologico", "poi_label_term": "Mura Ciclopiche - San Felice Circeo" }, "geometry": { "type": "Point", "coordinates": [ 13.081241, 41.231163 ] } },
{ "type": "Feature", "properties": { "poi_id": "http:\/\/www.futouring.com\/download\/dataset\/futouring_pois.rdf#turismoCulturale_POI_1088", "poi _ category _ term": "POI_InteresseArcheologico", "poi_label_term": "Villa di Marco Emilio Lepido - San Felice Circeo" }, "geometry": { "type": "Point", "coordinates": [ 13.092431, 41.23316 ] } },
{ "type": "Feature", "properties": { "poi_id": "http:\/\/www.futouring.com\/download\/dataset\/futouring_pois.rdf#turismoCulturale_POI_1076", "poi _ category _ term": "Museo", "poi_label_term": "Mostra Permanente Homo Sapiens et Habitat - San Felice Circeo" }, "geometry": { "type": "Point", "coordinates": [ 13.088587, 41.23317 ] } },
{ "type": "Feature", "properties": { "poi_id": "http:\/\/www.futouring.com\/download\/dataset\/futouring_pois.rdf#turismoCulturale_POI_1083", "poi _ category _ term": "Castello", "poi_label_term": "Torre Templare and Porta del Parco ogival gate - San Felice Circeo" }, "geometry": { "type": "Point", "coordinates": [ 13.08872, 41.233307 ] } },
{ "type": "Feature", "properties": { "poi_id": "http:\/\/www.futouring.com\/download\/dataset\/futouring_pois.rdf#turismoCulturale_POI_1079", "poi _ category _ term": "POI_InteresseCulturale", "poi_label_term": "Centro storico - San Felice Circeo" }, "geometry": { "type": "Point", "coordinates": [ 13.088649, 41.233376 ] } },
{ "type": "Feature", "properties": { "poi_id": "http:\/\/www.futouring.com\/download\/dataset\/futouring_pois.rdf#turismoCulturale_POI_1078", "poi _ category _ term": "POI_InteressePaesaggistico", "poi_label_term": "Parco Nazionale del Circeo - San Felice Circeo" }, "geometry": { "type": "Point", "coordinates": [ 13.0643, 41.2348 ] } },
{ "type": "Feature", "properties": { "poi_id": "http:\/\/www.futouring.com\/download\/dataset\/futouring_pois.rdf#turismoCulturale_POI_1098", "poi _ category _ term": "POI_InteresseArcheologico", "poi_label_term": "Villa di Emilio Scauro, resti - Scauri" }, "geometry": { "type": "Point", "coordinates": [ 13.73675, 41.239788 ] } },
{ "type": "Feature", "properties": { "poi_id": "http:\/\/www.futouring.com\/download\/dataset\/futouring_pois.rdf#turismoCulturale_POI_938", "poi _ category _ term": "POI_InteressePaesaggistico", "poi_label_term": "Spiaggia monte d’argento -  Minturno" }, "geometry": { "type": "Point", "coordinates": [ 13.73675, 41.239788 ] } },
{ "type": "Feature", "properties": { "poi_id": "http:\/\/www.futouring.com\/download\/dataset\/futouring_pois.rdf#turismoCulturale_POI_1139", "poi _ category _ term": "POI_InteresseArcheologico", "poi_label_term": "Mons Garelianus" }, "geometry": { "type": "Point", "coordinates": [ 13.73848, 41.240765 ] } },
{ "type": "Feature", "properties": { "poi_id": "http:\/\/www.futouring.com\/download\/dataset\/futouring_pois.rdf#turismoCulturale_POI_963", "poi _ category _ term": "POI_InteresseArchitettonico", "poi_label_term": "Suspension bridge - Minturno" }, "geometry": { "type": "Point", "coordinates": [ 13.771217, 41.242695 ] } },
{ "type": "Feature", "properties": { "poi_id": "http:\/\/www.futouring.com\/download\/dataset\/futouring_pois.rdf#turismoCulturale_POI_1134", "poi _ category _ term": "POI_InteresseArcheologico", "poi_label_term": "Teatro Romano - Scauri" }, "geometry": { "type": "Point", "coordinates": [ 13.76884, 41.242893 ] } },
{ "type": "Feature", "properties": { "poi_id": "http:\/\/www.futouring.com\/download\/dataset\/futouring_pois.rdf#turismoCulturale_POI_1142", "poi _ category _ term": "POI_InteresseCulturale", "poi_label_term": "Cimitero Militare Commonwealth - Scauri" }, "geometry": { "type": "Point", "coordinates": [ 13.76651, 41.243153 ] } },
{ "type": "Feature", "properties": { "poi_id": "http:\/\/www.futouring.com\/download\/dataset\/futouring_pois.rdf#turismoCulturale_POI_1137", "poi _ category _ term": "POI_InteresseArcheologico", "poi_label_term": "Acquedotto Romano - Scauri" }, "geometry": { "type": "Point", "coordinates": [ 13.76214, 41.243748 ] } },
{ "type": "Feature", "properties": { "poi_id": "http:\/\/www.futouring.com\/download\/dataset\/futouring_pois.rdf#turismoCulturale_POI_1071", "poi _ category _ term": "Castello", "poi_label_term": "Torre Paola - San Felice Circeo" }, "geometry": { "type": "Point", "coordinates": [ 13.03672, 41.2476 ] } },
{ "type": "Feature", "properties": { "poi_id": "http:\/\/www.futouring.com\/download\/dataset\/futouring_pois.rdf#turismoCulturale_POI_948", "poi _ category _ term": "POI_InteressePaesaggistico", "poi_label_term": "Blue Cave -  Minturno" }, "geometry": { "type": "Point", "coordinates": [ 13.697446, 41.248997 ] } },
{ "type": "Feature", "properties": { "poi_id": "http:\/\/www.futouring.com\/download\/dataset\/futouring_pois.rdf#turismoCulturale_POI_286", "poi _ category _ term": "POI_InteresseArchitettonico", "poi_label_term": "Villa di Mamurra - Formia" }, "geometry": { "type": "Point", "coordinates": [ 13.67511, 41.249275 ] } },
{ "type": "Feature", "properties": { "poi_id": "http:\/\/www.futouring.com\/download\/dataset\/futouring_pois.rdf#turismoCulturale_POI_289", "poi _ category _ term": "POI_InteresseArcheologico", "poi_label_term": "Cisterna delle 36 Colonne - Scauri" }, "geometry": { "type": "Point", "coordinates": [ 13.67511, 41.249275 ] } },
{ "type": "Feature", "properties": { "poi_id": "http:\/\/www.futouring.com\/download\/dataset\/futouring_pois.rdf#turismoCulturale_POI_290", "poi _ category _ term": "POI_InteresseArcheologico", "poi_label_term": "Cave of the Janara - Scauri" }, "geometry": { "type": "Point", "coordinates": [ 13.67511, 41.249275 ] } },
{ "type": "Feature", "properties": { "poi_id": "http:\/\/www.futouring.com\/download\/dataset\/futouring_pois.rdf#turismoCulturale_POI_291", "poi _ category _ term": "POI_InteresseArcheologico", "poi_label_term": "Resti di terme e cisterne - Scauri" }, "geometry": { "type": "Point", "coordinates": [ 13.67511, 41.249275 ] } },
{ "type": "Feature", "properties": { "poi_id": "http:\/\/www.futouring.com\/download\/dataset\/futouring_pois.rdf#turismoCulturale_POI_647", "poi _ category _ term": "POI_InteressePaesaggistico", "poi_label_term": "Parco Regionale Riviera di Ulisse - Parco Regionale di Gianola e Monte di Scauri" }, "geometry": { "type": "Point", "coordinates": [ 13.67511, 41.249275 ] } },
{ "type": "Feature", "properties": { "poi_id": "http:\/\/www.futouring.com\/download\/dataset\/futouring_pois.rdf#turismoCulturale_POI_1096", "poi _ category _ term": "POI_InteresseArchitettonico", "poi_label_term": "Torre Quadrata o dei Cavallari - Scauri" }, "geometry": { "type": "Point", "coordinates": [ 13.69802, 41.249313 ] } },
{ "type": "Feature", "properties": { "poi_id": "http:\/\/www.futouring.com\/download\/dataset\/futouring_pois.rdf#turismoCulturale_POI_283", "poi _ category _ term": "POI_InteresseArcheologico", "poi_label_term": "Porticciolo Caposele - Formia" }, "geometry": { "type": "Point", "coordinates": [ 13.59664, 41.250347 ] } },
{ "type": "Feature", "properties": { "poi_id": "http:\/\/www.futouring.com\/download\/dataset\/futouring_pois.rdf#turismoCulturale_POI_936", "poi _ category _ term": "POI_InteresseArchitettonico", "poi_label_term": "Sassolini Beach - Minturno" }, "geometry": { "type": "Point", "coordinates": [ 13.69648, 41.25106 ] } },
{ "type": "Feature", "properties": { "poi_id": "http:\/\/www.futouring.com\/download\/dataset\/futouring_pois.rdf#turismoCulturale_POI_230", "poi _ category _ term": "Museo", "poi_label_term": "Marina di Minturno Antiquarium" }, "geometry": { "type": "Point", "coordinates": [ 13.730335, 41.25126 ] } },
{ "type": "Feature", "properties": { "poi_id": "http:\/\/www.futouring.com\/download\/dataset\/futouring_pois.rdf#turismoCulturale_POI_950", "poi _ category _ term": "Scavo", "poi_label_term": "Archaeological Area of Minturnae - Minturno" }, "geometry": { "type": "Point", "coordinates": [ 13.730335, 41.25126 ] } },
{ "type": "Feature", "properties": { "poi_id": "http:\/\/www.futouring.com\/download\/dataset\/futouring_pois.rdf#turismoCulturale_POI_1149", "poi _ category _ term": "POI_InteressePaesaggistico", "poi_label_term": "Parco Regionale Riviera di Ulisse - Monumento Naturale Villa di Tiberio e Costa Torre Capovento - Punta Cetarola" }, "geometry": { "type": "Point", "coordinates": [ 13.450119, 41.251263 ] } },
{ "type": "Feature", "properties": { "poi_id": "http:\/\/www.futouring.com\/download\/dataset\/futouring_pois.rdf#turismoCulturale_POI_221", "poi _ category _ term": "POI_InteresseArcheologico", "poi_label_term": "Villa of Tiberio - Sperlonga" }, "geometry": { "type": "Point", "coordinates": [ 13.450119, 41.251263 ] } },
{ "type": "Feature", "properties": { "poi_id": "http:\/\/www.futouring.com\/download\/dataset\/futouring_pois.rdf#turismoCulturale_POI_222", "poi _ category _ term": "POI_InteresseArcheologico", "poi_label_term": "Tiberio's Cave - Sperlonga" }, "geometry": { "type": "Point", "coordinates": [ 13.450119, 41.251263 ] } },
{ "type": "Feature", "properties": { "poi_id": "http:\/\/www.futouring.com\/download\/dataset\/futouring_pois.rdf#turismoCulturale_POI_971", "poi _ category _ term": "Necropoli", "poi_label_term": "Tomba di Cicerone - Formia" }, "geometry": { "type": "Point", "coordinates": [ 13.578967, 41.251682 ] } },
{ "type": "Feature", "properties": { "poi_id": "http:\/\/www.futouring.com\/download\/dataset\/futouring_pois.rdf#turismoCulturale_POI_968", "poi _ category _ term": "POI_InteressePaesaggistico", "poi_label_term": "Blue Oasis of Mount Orlando (WWF) - Formia" }, "geometry": { "type": "Point", "coordinates": [ 13.67716, 41.25179 ] } },
{ "type": "Feature", "properties": { "poi_id": "http:\/\/www.futouring.com\/download\/dataset\/futouring_pois.rdf#turismoCulturale_POI_295", "poi _ category _ term": "POI_InteresseArcheologico", "poi_label_term": "Villa Rubino and Villa of Cicerone - Formia" }, "geometry": { "type": "Point", "coordinates": [ 13.601074, 41.25242 ] } },
{ "type": "Feature", "properties": { "poi_id": "http:\/\/www.futouring.com\/download\/dataset\/futouring_pois.rdf#turismoCulturale_POI_980", "poi _ category _ term": "POI_InteresseArchitettonico", "poi_label_term": "Fountain of San Remigio - Formia" }, "geometry": { "type": "Point", "coordinates": [ 13.592824, 41.252712 ] } },
{ "type": "Feature", "properties": { "poi_id": "http:\/\/www.futouring.com\/download\/dataset\/futouring_pois.rdf#turismoCulturale_POI_1095", "poi _ category _ term": "POI_InteresseArcheologico", "poi_label_term": "Megalithic walls of Pyrae - Scauri" }, "geometry": { "type": "Point", "coordinates": [ 13.69914, 41.25425 ] } },
{ "type": "Feature", "properties": { "poi_id": "http:\/\/www.futouring.com\/download\/dataset\/futouring_pois.rdf#turismoCulturale_POI_1135", "poi _ category _ term": "Castello", "poi_label_term": "Torre dei Molini - Scauri" }, "geometry": { "type": "Point", "coordinates": [ 13.69914, 41.25425 ] } },
{ "type": "Feature", "properties": { "poi_id": "http:\/\/www.futouring.com\/download\/dataset\/futouring_pois.rdf#turismoCulturale_POI_1154", "poi _ category _ term": "Torre", "poi_label_term": "Torre Truglia - Sperlonga" }, "geometry": { "type": "Point", "coordinates": [ 13.434021, 41.254562 ] } },
{ "type": "Feature", "properties": { "poi_id": "http:\/\/www.futouring.com\/download\/dataset\/futouring_pois.rdf#turismoCulturale_POI_974", "poi _ category _ term": "POI_InteresseArcheologico", "poi_label_term": "Teatro romano - Formia" }, "geometry": { "type": "Point", "coordinates": [ 13.600323, 41.254913 ] } },
{ "type": "Feature", "properties": { "poi_id": "http:\/\/www.futouring.com\/download\/dataset\/futouring_pois.rdf#turismoCulturale_POI_1002", "poi _ category _ term": "POI_InteresseCulturale", "poi_label_term": "Borgo di Castellone - Formia" }, "geometry": { "type": "Point", "coordinates": [ 13.601187, 41.255352 ] } },
{ "type": "Feature", "properties": { "poi_id": "http:\/\/www.futouring.com\/download\/dataset\/futouring_pois.rdf#turismoCulturale_POI_284", "poi _ category _ term": "POI_InteresseArcheologico", "poi_label_term": "Great Cistern - Formia" }, "geometry": { "type": "Point", "coordinates": [ 13.601155, 41.2554 ] } },
{ "type": "Feature", "properties": { "poi_id": "http:\/\/www.futouring.com\/download\/dataset\/futouring_pois.rdf#turismoCulturale_POI_1041", "poi _ category _ term": "Chiesa", "poi_label_term": "Chiesa di Sant'Erasmo - Formia" }, "geometry": { "type": "Point", "coordinates": [ 13.598738, 41.25582 ] } },
{ "type": "Feature", "properties": { "poi_id": "http:\/\/www.futouring.com\/download\/dataset\/futouring_pois.rdf#turismoCulturale_POI_970", "poi _ category _ term": "Museo", "poi_label_term": "Museo Archeologico della Chiesa di S. Erasmo - Formia" }, "geometry": { "type": "Point", "coordinates": [ 13.598738, 41.25582 ] } },
{ "type": "Feature", "properties": { "poi_id": "http:\/\/www.futouring.com\/download\/dataset\/futouring_pois.rdf#turismoCulturale_POI_285", "poi _ category _ term": "POI_InteresseArcheologico", "poi_label_term": "Cryptoporticos - Formia" }, "geometry": { "type": "Point", "coordinates": [ 13.609153, 41.255833 ] } },
{ "type": "Feature", "properties": { "poi_id": "http:\/\/www.futouring.com\/download\/dataset\/futouring_pois.rdf#turismoCulturale_POI_1150", "poi _ category _ term": "POI_InteresseArchitettonico", "poi_label_term": "Chiesa Sanctae Mariae de Spelonche - Sperlonga" }, "geometry": { "type": "Point", "coordinates": [ 13.435249, 41.256054 ] } },
{ "type": "Feature", "properties": { "poi_id": "http:\/\/www.futouring.com\/download\/dataset\/futouring_pois.rdf#turismoCulturale_POI_1004", "poi _ category _ term": "POI_InteresseArchitettonico", "poi_label_term": "Torre di Castellone - Formia" }, "geometry": { "type": "Point", "coordinates": [ 13.599953, 41.256363 ] } },
{ "type": "Feature", "properties": { "poi_id": "http:\/\/www.futouring.com\/download\/dataset\/futouring_pois.rdf#turismoCulturale_POI_652", "poi _ category _ term": "Museo", "poi_label_term": "National Archaeological Museum Formia" }, "geometry": { "type": "Point", "coordinates": [ 13.6094, 41.256905 ] } },
{ "type": "Feature", "properties": { "poi_id": "http:\/\/www.futouring.com\/download\/dataset\/futouring_pois.rdf#turismoCulturale_POI_1146", "poi _ category _ term": "POI_InteresseArchitettonico", "poi_label_term": "Medieval village - Sperlonga" }, "geometry": { "type": "Point", "coordinates": [ 13.431855, 41.25818 ] } },
{ "type": "Feature", "properties": { "poi_id": "http:\/\/www.futouring.com\/download\/dataset\/futouring_pois.rdf#turismoCulturale_POI_1043", "poi _ category _ term": "POI_InteresseCulturale", "poi_label_term": "Village of Mola - Formia" }, "geometry": { "type": "Point", "coordinates": [ 13.613863, 41.259132 ] } },
{ "type": "Feature", "properties": { "poi_id": "http:\/\/www.futouring.com\/download\/dataset\/futouring_pois.rdf#turismoCulturale_POI_1044", "poi _ category _ term": "Necropoli", "poi_label_term": "Tower of Mola - Formia" }, "geometry": { "type": "Point", "coordinates": [ 13.613863, 41.259132 ] } },
{ "type": "Feature", "properties": { "poi_id": "http:\/\/www.futouring.com\/download\/dataset\/futouring_pois.rdf#turismoCulturale_POI_223", "poi _ category _ term": "Museo", "poi_label_term": "Museo Archeologico Nazionale e Villa e Antro di Tiberio" }, "geometry": { "type": "Point", "coordinates": [ 13.43904, 41.261402 ] } },
{ "type": "Feature", "properties": { "poi_id": "http:\/\/www.futouring.com\/download\/dataset\/futouring_pois.rdf#turismoCulturale_POI_962", "poi _ category _ term": "Chiesa", "poi_label_term": "Church - Monastery of S. Francesco - Minturno" }, "geometry": { "type": "Point", "coordinates": [ 13.74647, 41.262398 ] } },
{ "type": "Feature", "properties": { "poi_id": "http:\/\/www.futouring.com\/download\/dataset\/futouring_pois.rdf#turismoCulturale_POI_958", "poi _ category _ term": "Museo", "poi_label_term": "Auruncan Ethnographic Museum -  Minturno" }, "geometry": { "type": "Point", "coordinates": [ 13.746954, 41.263115 ] } },
{ "type": "Feature", "properties": { "poi_id": "http:\/\/www.futouring.com\/download\/dataset\/futouring_pois.rdf#turismoCulturale_POI_1140", "poi _ category _ term": "Chiesa", "poi_label_term": "Chapel of the Confraternita del SS. Rosario - Scauri" }, "geometry": { "type": "Point", "coordinates": [ 13.746745, 41.2634 ] } },
{ "type": "Feature", "properties": { "poi_id": "http:\/\/www.futouring.com\/download\/dataset\/futouring_pois.rdf#turismoCulturale_POI_960", "poi _ category _ term": "Chiesa", "poi_label_term": "Chiesa di S. Pietro Apostolo -  Minturno" }, "geometry": { "type": "Point", "coordinates": [ 13.74749, 41.263515 ] } },
{ "type": "Feature", "properties": { "poi_id": "http:\/\/www.futouring.com\/download\/dataset\/futouring_pois.rdf#turismoCulturale_POI_959", "poi _ category _ term": "Castello", "poi_label_term": "Castello Baronale - Minturno" }, "geometry": { "type": "Point", "coordinates": [ 13.74484, 41.263664 ] } },
{ "type": "Feature", "properties": { "poi_id": "http:\/\/www.futouring.com\/download\/dataset\/futouring_pois.rdf#turismoCulturale_POI_1039", "poi _ category _ term": "POI_InteresseArchitettonico", "poi_label_term": "Church of S. Maria La Noce - Formia" }, "geometry": { "type": "Point", "coordinates": [ 13.59013, 41.26987 ] } },
{ "type": "Feature", "properties": { "poi_id": "http:\/\/www.futouring.com\/download\/dataset\/futouring_pois.rdf#turismoCulturale_POI_1059", "poi _ category _ term": "Chiesa", "poi_label_term": "Chiesa di Sant'Andrea - Borgo di Trivio - Formia" }, "geometry": { "type": "Point", "coordinates": [ 13.64, 41.28 ] } },
{ "type": "Feature", "properties": { "poi_id": "http:\/\/www.futouring.com\/download\/dataset\/futouring_pois.rdf#turismoCulturale_POI_1060", "poi _ category _ term": "POI_InteresseArchitettonico", "poi_label_term": "Borgo di Castellonorato - Formia" }, "geometry": { "type": "Point", "coordinates": [ 13.679952, 41.282158 ] } },
{ "type": "Feature", "properties": { "poi_id": "http:\/\/www.futouring.com\/download\/dataset\/futouring_pois.rdf#turismoCulturale_POI_1061", "poi _ category _ term": "POI_InteresseArchitettonico", "poi_label_term": "Castle, ruins - Castellonorato - Formia" }, "geometry": { "type": "Point", "coordinates": [ 13.679952, 41.282158 ] } },
{ "type": "Feature", "properties": { "poi_id": "http:\/\/www.futouring.com\/download\/dataset\/futouring_pois.rdf#turismoCulturale_POI_1047", "poi _ category _ term": "POI_InteresseCulturale", "poi_label_term": "Village of Maranola - Formia" }, "geometry": { "type": "Point", "coordinates": [ 13.626311, 41.284595 ] } },
{ "type": "Feature", "properties": { "poi_id": "http:\/\/www.futouring.com\/download\/dataset\/futouring_pois.rdf#turismoCulturale_POI_1049", "poi _ category _ term": "Castello", "poi_label_term": "Torre Caetani - Maranola - Formia" }, "geometry": { "type": "Point", "coordinates": [ 13.626311, 41.284595 ] } },
{ "type": "Feature", "properties": { "poi_id": "http:\/\/www.futouring.com\/download\/dataset\/futouring_pois.rdf#turismoCulturale_POI_1050", "poi _ category _ term": "POI_InteresseArchitettonico", "poi_label_term": "Chiesa di San Luca Evangelista - Maranola - Formia" }, "geometry": { "type": "Point", "coordinates": [ 13.626311, 41.284595 ] } },
{ "type": "Feature", "properties": { "poi_id": "http:\/\/www.futouring.com\/download\/dataset\/futouring_pois.rdf#turismoCulturale_POI_1052", "poi _ category _ term": "POI_InteresseArchitettonico", "poi_label_term": "Church of Santa Maria ad Martyres - Maranola - Formia" }, "geometry": { "type": "Point", "coordinates": [ 13.626311, 41.284595 ] } },
{ "type": "Feature", "properties": { "poi_id": "http:\/\/www.futouring.com\/download\/dataset\/futouring_pois.rdf#turismoCulturale_POI_1053", "poi _ category _ term": "POI_InteresseArchitettonico", "poi_label_term": "Chiesa dell’Annunziata - Maranola - Formia" }, "geometry": { "type": "Point", "coordinates": [ 13.626311, 41.284595 ] } },
{ "type": "Feature", "properties": { "poi_id": "http:\/\/www.futouring.com\/download\/dataset\/futouring_pois.rdf#turismoCulturale_POI_1056", "poi _ category _ term": "POI_InteresseArchitettonico", "poi_label_term": "Village of Trivio - Formia" }, "geometry": { "type": "Point", "coordinates": [ 13.642968, 41.284607 ] } },
{ "type": "Feature", "properties": { "poi_id": "http:\/\/www.futouring.com\/download\/dataset\/futouring_pois.rdf#turismoCulturale_POI_656", "poi _ category _ term": "POI_InteresseCulturale", "poi_label_term": "Pisco Montano e porta Napoletana - Terracina" }, "geometry": { "type": "Point", "coordinates": [ 13.25959, 41.28788 ] } },
{ "type": "Feature", "properties": { "poi_id": "http:\/\/www.futouring.com\/download\/dataset\/futouring_pois.rdf#turismoCulturale_POI_657", "poi _ category _ term": "POI_InteresseArcheologico", "poi_label_term": "Remains of Roman villas and Granaio Antonelli - Terracina" }, "geometry": { "type": "Point", "coordinates": [ 13.25067, 41.28844 ] } },
{ "type": "Feature", "properties": { "poi_id": "http:\/\/www.futouring.com\/download\/dataset\/futouring_pois.rdf#turismoCulturale_POI_655", "poi _ category _ term": "Chiesa", "poi_label_term": "Church of SS. Salvatore - Terracina" }, "geometry": { "type": "Point", "coordinates": [ 13.25319, 41.28872 ] } },
{ "type": "Feature", "properties": { "poi_id": "http:\/\/www.futouring.com\/download\/dataset\/futouring_pois.rdf#turismoCulturale_POI_915", "poi _ category _ term": "Castello", "poi_label_term": "Castle - Itri" }, "geometry": { "type": "Point", "coordinates": [ 13.530836, 41.289043 ] } },
{ "type": "Feature", "properties": { "poi_id": "http:\/\/www.futouring.com\/download\/dataset\/futouring_pois.rdf#turismoCulturale_POI_916", "poi _ category _ term": "POI_InteresseArchitettonico", "poi_label_term": "Porta Mamurra - Itri" }, "geometry": { "type": "Point", "coordinates": [ 13.530761, 41.289196 ] } },
{ "type": "Feature", "properties": { "poi_id": "http:\/\/www.futouring.com\/download\/dataset\/futouring_pois.rdf#turismoCulturale_POI_918", "poi _ category _ term": "Chiesa", "poi_label_term": "Church of San Michele Arcangelo - Itri" }, "geometry": { "type": "Point", "coordinates": [ 13.532434, 41.289333 ] } },
{ "type": "Feature", "properties": { "poi_id": "http:\/\/www.futouring.com\/download\/dataset\/futouring_pois.rdf#turismoCulturale_POI_917", "poi _ category _ term": "Museo", "poi_label_term": "Museum of Brigandage - Itri" }, "geometry": { "type": "Point", "coordinates": [ 13.524037, 41.29016 ] } },
{ "type": "Feature", "properties": { "poi_id": "http:\/\/www.futouring.com\/download\/dataset\/futouring_pois.rdf#turismoCulturale_POI_911", "poi _ category _ term": "POI_InteresseCulturale", "poi_label_term": "Medieval village - Itri" }, "geometry": { "type": "Point", "coordinates": [ 13.5318, 41.29033 ] } },
{ "type": "Feature", "properties": { "poi_id": "http:\/\/www.futouring.com\/download\/dataset\/futouring_pois.rdf#turismoCulturale_POI_611", "poi _ category _ term": "POI_InteresseArcheologico", "poi_label_term": "Basilica Forense - Terracina" }, "geometry": { "type": "Point", "coordinates": [ 13.25003, 41.2909 ] } },
{ "type": "Feature", "properties": { "poi_id": "http:\/\/www.futouring.com\/download\/dataset\/futouring_pois.rdf#turismoCulturale_POI_612", "poi _ category _ term": "POI_InteresseArcheologico", "poi_label_term": "Quadrifrons arch - Terracina" }, "geometry": { "type": "Point", "coordinates": [ 13.25003, 41.2909 ] } },
{ "type": "Feature", "properties": { "poi_id": "http:\/\/www.futouring.com\/download\/dataset\/futouring_pois.rdf#turismoCulturale_POI_610", "poi _ category _ term": "POI_InteresseArcheologico", "poi_label_term": "Porta Albina - Terracina" }, "geometry": { "type": "Point", "coordinates": [ 13.24997, 41.29102 ] } },
{ "type": "Feature", "properties": { "poi_id": "http:\/\/www.futouring.com\/download\/dataset\/futouring_pois.rdf#turismoCulturale_POI_920", "poi _ category _ term": "Chiesa", "poi_label_term": "Church of Santa Maria Maggiore - Itri" }, "geometry": { "type": "Point", "coordinates": [ 13.532135, 41.29106 ] } },
{ "type": "Feature", "properties": { "poi_id": "http:\/\/www.futouring.com\/download\/dataset\/futouring_pois.rdf#turismoCulturale_POI_649", "poi _ category _ term": "Chiesa", "poi_label_term": "Chiesa e convento di S. Francesco - Terracina" }, "geometry": { "type": "Point", "coordinates": [ 13.25128, 41.29124 ] } },
{ "type": "Feature", "properties": { "poi_id": "http:\/\/www.futouring.com\/download\/dataset\/futouring_pois.rdf#turismoCulturale_POI_925", "poi _ category _ term": "Chiesa", "poi_label_term": "Monastery of the Passionisti and Church of Santa Maria di Loreto - Itri" }, "geometry": { "type": "Point", "coordinates": [ 13.527171, 41.29135 ] } },
{ "type": "Feature", "properties": { "poi_id": "http:\/\/www.futouring.com\/download\/dataset\/futouring_pois.rdf#turismoCulturale_POI_651", "poi _ category _ term": "POI_InteresseArchitettonico", "poi_label_term": "Palazzo Braschi - Terracina" }, "geometry": { "type": "Point", "coordinates": [ 13.24819, 41.29136 ] } },
{ "type": "Feature", "properties": { "poi_id": "http:\/\/www.futouring.com\/download\/dataset\/futouring_pois.rdf#turismoCulturale_POI_616", "poi _ category _ term": "Museo", "poi_label_term": "Pio Capponi Civic Archaeological Museum - Terracina" }, "geometry": { "type": "Point", "coordinates": [ 13.2483, 41.29156 ] } },
{ "type": "Feature", "properties": { "poi_id": "http:\/\/www.futouring.com\/download\/dataset\/futouring_pois.rdf#turismoCulturale_POI_635", "poi _ category _ term": "Castello", "poi_label_term": "Torre Frumentaria - Terracina" }, "geometry": { "type": "Point", "coordinates": [ 13.24828, 41.29158 ] } },
{ "type": "Feature", "properties": { "poi_id": "http:\/\/www.futouring.com\/download\/dataset\/futouring_pois.rdf#turismoCulturale_POI_613", "poi _ category _ term": "POI_InteresseArcheologico", "poi_label_term": "Foro Emiliano - Terracina" }, "geometry": { "type": "Point", "coordinates": [ 13.24903, 41.29171 ] } },
{ "type": "Feature", "properties": { "poi_id": "http:\/\/www.futouring.com\/download\/dataset\/futouring_pois.rdf#turismoCulturale_POI_614", "poi _ category _ term": "POI_InteresseArcheologico", "poi_label_term": "Via Appia - Terracina" }, "geometry": { "type": "Point", "coordinates": [ 13.24906, 41.29172 ] } },
{ "type": "Feature", "properties": { "poi_id": "http:\/\/www.futouring.com\/download\/dataset\/futouring_pois.rdf#turismoCulturale_POI_615", "poi _ category _ term": "POI_InteresseArcheologico", "poi_label_term": "Portico e teatro - Terracina" }, "geometry": { "type": "Point", "coordinates": [ 13.24934, 41.29202 ] } },
{ "type": "Feature", "properties": { "poi_id": "http:\/\/www.futouring.com\/download\/dataset\/futouring_pois.rdf#turismoCulturale_POI_637", "poi _ category _ term": "Chiesa", "poi_label_term": "Cathedral - Terracina" }, "geometry": { "type": "Point", "coordinates": [ 13.24858, 41.2921 ] } },
{ "type": "Feature", "properties": { "poi_id": "http:\/\/www.futouring.com\/download\/dataset\/futouring_pois.rdf#turismoCulturale_POI_641", "poi _ category _ term": "POI_InteresseArchitettonico", "poi_label_term": "Palazzo Vinditti - Terracina" }, "geometry": { "type": "Point", "coordinates": [ 13.2486, 41.2921 ] } },
{ "type": "Feature", "properties": { "poi_id": "http:\/\/www.futouring.com\/download\/dataset\/futouring_pois.rdf#turismoCulturale_POI_618", "poi _ category _ term": "POI_InteresseArcheologico", "poi_label_term": "Capitolium - Terracina" }, "geometry": { "type": "Point", "coordinates": [ 13.2485, 41.29214 ] } },
{ "type": "Feature", "properties": { "poi_id": "http:\/\/www.futouring.com\/download\/dataset\/futouring_pois.rdf#turismoCulturale_POI_620", "poi _ category _ term": "POI_InteresseArcheologico", "poi_label_term": "Camminamento delle mura - Terracina" }, "geometry": { "type": "Point", "coordinates": [ 13.2485, 41.29214 ] } },
{ "type": "Feature", "properties": { "poi_id": "http:\/\/www.futouring.com\/download\/dataset\/futouring_pois.rdf#turismoCulturale_POI_648", "poi _ category _ term": "Castello", "poi_label_term": "Castello Frangipane - Terracina" }, "geometry": { "type": "Point", "coordinates": [ 13.25062, 41.29216 ] } },
{ "type": "Feature", "properties": { "poi_id": "http:\/\/www.futouring.com\/download\/dataset\/futouring_pois.rdf#turismoCulturale_POI_632", "poi _ category _ term": "POI_InteresseArcheologico", "poi_label_term": "Great Temple - Terracina" }, "geometry": { "type": "Point", "coordinates": [ 13.24798, 41.29225 ] } },
{ "type": "Feature", "properties": { "poi_id": "http:\/\/www.futouring.com\/download\/dataset\/futouring_pois.rdf#turismoCulturale_POI_658", "poi _ category _ term": "POI_InteresseArcheologico", "poi_label_term": "Temple of Giove Anxur - Terracina" }, "geometry": { "type": "Point", "coordinates": [ 13.26013, 41.29267 ] } },
{ "type": "Feature", "properties": { "poi_id": "http:\/\/www.futouring.com\/download\/dataset\/futouring_pois.rdf#turismoCulturale_POI_627", "poi _ category _ term": "POI_InteresseArcheologico", "poi_label_term": "Porta Maggio - Terracina" }, "geometry": { "type": "Point", "coordinates": [ 13.24695, 41.29292 ] } },
{ "type": "Feature", "properties": { "poi_id": "http:\/\/www.futouring.com\/download\/dataset\/futouring_pois.rdf#turismoCulturale_POI_642", "poi _ category _ term": "Chiesa", "poi_label_term": "Chiesa di San Giovanni - Terracina" }, "geometry": { "type": "Point", "coordinates": [ 13.24695, 41.29292 ] } },
{ "type": "Feature", "properties": { "poi_id": "http:\/\/www.futouring.com\/download\/dataset\/futouring_pois.rdf#turismoCulturale_POI_628", "poi _ category _ term": "POI_InteresseArcheologico", "poi_label_term": "Casa di età sillana -Terracina" }, "geometry": { "type": "Point", "coordinates": [ 13.24612, 41.29319 ] } },
{ "type": "Feature", "properties": { "poi_id": "http:\/\/www.futouring.com\/download\/dataset\/futouring_pois.rdf#turismoCulturale_POI_631", "poi _ category _ term": "POI_InteresseArchitettonico", "poi_label_term": "Porta Romana - Terracina" }, "geometry": { "type": "Point", "coordinates": [ 13.24612, 41.29319 ] } },
{ "type": "Feature", "properties": { "poi_id": "http:\/\/www.futouring.com\/download\/dataset\/futouring_pois.rdf#turismoCulturale_POI_654", "poi _ category _ term": "Chiesa", "poi_label_term": "Church of the Purgatorio - Terracina" }, "geometry": { "type": "Point", "coordinates": [ 13.24679, 41.2934 ] } },
{ "type": "Feature", "properties": { "poi_id": "http:\/\/www.futouring.com\/download\/dataset\/futouring_pois.rdf#turismoCulturale_POI_645", "poi _ category _ term": "Chiesa", "poi_label_term": "Church and Monastery of S. Domenico - Terracina" }, "geometry": { "type": "Point", "coordinates": [ 13.24994, 41.2937 ] } },
{ "type": "Feature", "properties": { "poi_id": "http:\/\/www.futouring.com\/download\/dataset\/futouring_pois.rdf#turismoCulturale_POI_644", "poi _ category _ term": "Chiesa", "poi_label_term": "Chiesa della Madonna delle Grazie - Terracina" }, "geometry": { "type": "Point", "coordinates": [ 13.2446, 41.29471 ] } },
{ "type": "Feature", "properties": { "poi_id": "http:\/\/www.futouring.com\/download\/dataset\/futouring_pois.rdf#turismoCulturale_POI_1089", "poi _ category _ term": "POI_InteresseCulturale", "poi_label_term": "Medieval village - Suio" }, "geometry": { "type": "Point", "coordinates": [ 13.852854, 41.297234 ] } },
{ "type": "Feature", "properties": { "poi_id": "http:\/\/www.futouring.com\/download\/dataset\/futouring_pois.rdf#turismoCulturale_POI_1090", "poi _ category _ term": "Chiesa", "poi_label_term": "Chiesa di S. Michele Arcangelo - Suio" }, "geometry": { "type": "Point", "coordinates": [ 13.852854, 41.297234 ] } },
{ "type": "Feature", "properties": { "poi_id": "http:\/\/www.futouring.com\/download\/dataset\/futouring_pois.rdf#turismoCulturale_POI_900", "poi _ category _ term": "POI_InteresseCulturale", "poi_label_term": "Borgo Medievale - Castelforte" }, "geometry": { "type": "Point", "coordinates": [ 13.823555, 41.298813 ] } },
{ "type": "Feature", "properties": { "poi_id": "http:\/\/www.futouring.com\/download\/dataset\/futouring_pois.rdf#turismoCulturale_POI_902", "poi _ category _ term": "Chiesa", "poi_label_term": "Church of Santi Cosma e Damiano - Castelforte" }, "geometry": { "type": "Point", "coordinates": [ 13.823555, 41.298813 ] } },
{ "type": "Feature", "properties": { "poi_id": "http:\/\/www.futouring.com\/download\/dataset\/futouring_pois.rdf#turismoCulturale_POI_901", "poi _ category _ term": "POI_InteresseArchitettonico", "poi_label_term": "Walls and Tower - Castelforte" }, "geometry": { "type": "Point", "coordinates": [ 13.820798, 41.3004 ] } },
{ "type": "Feature", "properties": { "poi_id": "http:\/\/www.futouring.com\/download\/dataset\/futouring_pois.rdf#turismoCulturale_POI_1092", "poi _ category _ term": "Terme", "poi_label_term": "Health Spa (Aquae Vescinae) - Suio" }, "geometry": { "type": "Point", "coordinates": [ 13.888841, 41.300434 ] } },
{ "type": "Feature", "properties": { "poi_id": "http:\/\/www.futouring.com\/download\/dataset\/futouring_pois.rdf#turismoCulturale_POI_909", "poi _ category _ term": "Chiesa", "poi_label_term": "Sanctuary of San Michele Arcangelo - Spigno Saturnia" }, "geometry": { "type": "Point", "coordinates": [ 13.635807, 41.306873 ] } },
{ "type": "Feature", "properties": { "poi_id": "http:\/\/www.futouring.com\/download\/dataset\/futouring_pois.rdf#turismoCulturale_POI_921", "poi _ category _ term": "StradaRomana", "poi_label_term": "2600 Metres of the ancient Appian Way - Itri" }, "geometry": { "type": "Point", "coordinates": [ 13.493508, 41.30823 ] } },
{ "type": "Feature", "properties": { "poi_id": "http:\/\/www.futouring.com\/download\/dataset\/futouring_pois.rdf#turismoCulturale_POI_907", "poi _ category _ term": "POI_InteresseCulturale", "poi_label_term": "Borgo di Spigno Vecchio - Spigno Saturnia" }, "geometry": { "type": "Point", "coordinates": [ 13.70971, 41.313503 ] } },
{ "type": "Feature", "properties": { "poi_id": "http:\/\/www.futouring.com\/download\/dataset\/futouring_pois.rdf#turismoCulturale_POI_908", "poi _ category _ term": "POI_InteresseCulturale", "poi_label_term": "Statue of Cristo Redentore - Spigno Saturnia" }, "geometry": { "type": "Point", "coordinates": [ 13.636111, 41.31361 ] } },
{ "type": "Feature", "properties": { "poi_id": "http:\/\/www.futouring.com\/download\/dataset\/futouring_pois.rdf#turismoCulturale_POI_923", "poi _ category _ term": "POI_InteresseArchitettonico", "poi_label_term": "Forte di Sant’Andrea, su resti di villa romana - Itri" }, "geometry": { "type": "Point", "coordinates": [ 13.486535, 41.314163 ] } },
{ "type": "Feature", "properties": { "poi_id": "http:\/\/www.futouring.com\/download\/dataset\/futouring_pois.rdf#turismoCulturale_POI_910", "poi _ category _ term": "Castello", "poi_label_term": "Castello Resti - Spigno Saturnia" }, "geometry": { "type": "Point", "coordinates": [ 13.711615, 41.314774 ] } },
{ "type": "Feature", "properties": { "poi_id": "http:\/\/www.futouring.com\/download\/dataset\/futouring_pois.rdf#turismoCulturale_POI_512", "poi _ category _ term": "POI_InteressePaesaggistico", "poi_label_term": "Monumento naturale del Lago di Fondi" }, "geometry": { "type": "Point", "coordinates": [ 13.32822, 41.33013 ] } },
{ "type": "Feature", "properties": { "poi_id": "http:\/\/www.futouring.com\/download\/dataset\/futouring_pois.rdf#turismoCulturale_POI_924", "poi _ category _ term": "Chiesa", "poi_label_term": "Santuario della Madonna della Civita e Collezione di ex-voto - Itri" }, "geometry": { "type": "Point", "coordinates": [ 13.51977, 41.33123 ] } },
{ "type": "Feature", "properties": { "poi_id": "http:\/\/www.futouring.com\/download\/dataset\/futouring_pois.rdf#turismoCulturale_POI_2302", "poi _ category _ term": "Chiesa", "poi_label_term": "Ausonia, The Church of Santa Maria del Piano" }, "geometry": { "type": "Point", "coordinates": [ 13.75148, 41.34915 ] } },
{ "type": "Feature", "properties": { "poi_id": "http:\/\/www.futouring.com\/download\/dataset\/futouring_pois.rdf#turismoCulturale_POI_527", "poi _ category _ term": "Chiesa", "poi_label_term": "Abbey of San Magno" }, "geometry": { "type": "Point", "coordinates": [ 13.353371, 41.349754 ] } },
{ "type": "Feature", "properties": { "poi_id": "http:\/\/www.futouring.com\/download\/dataset\/futouring_pois.rdf#turismoCulturale_POI_904", "poi _ category _ term": "POI_InteresseCulturale", "poi_label_term": "Borgo Medievale - Monte San Biagio" }, "geometry": { "type": "Point", "coordinates": [ 13.353371, 41.349754 ] } },
{ "type": "Feature", "properties": { "poi_id": "http:\/\/www.futouring.com\/download\/dataset\/futouring_pois.rdf#turismoCulturale_POI_906", "poi _ category _ term": "Castello", "poi_label_term": "Castle - Monte San Biagio" }, "geometry": { "type": "Point", "coordinates": [ 13.353371, 41.349754 ] } },
{ "type": "Feature", "properties": { "poi_id": "http:\/\/www.futouring.com\/download\/dataset\/futouring_pois.rdf#turismoCulturale_POI_2303", "poi _ category _ term": "Castello", "poi_label_term": "Ausonia, Castello Comunale" }, "geometry": { "type": "Point", "coordinates": [ 13.748889, 41.35537 ] } },
{ "type": "Feature", "properties": { "poi_id": "http:\/\/www.futouring.com\/download\/dataset\/futouring_pois.rdf#turismoCulturale_POI_531", "poi _ category _ term": "Chiesa", "poi_label_term": "Church of San Francesco" }, "geometry": { "type": "Point", "coordinates": [ 13.430293, 41.35672 ] } },
{ "type": "Feature", "properties": { "poi_id": "http:\/\/www.futouring.com\/download\/dataset\/futouring_pois.rdf#turismoCulturale_POI_306", "poi _ category _ term": "Museo", "poi_label_term": "Museo Naturalistico Parco Nazionale del Circeo" }, "geometry": { "type": "Point", "coordinates": [ 13.012652, 41.357563 ] } },
{ "type": "Feature", "properties": { "poi_id": "http:\/\/www.futouring.com\/download\/dataset\/futouring_pois.rdf#turismoCulturale_POI_74", "poi _ category _ term": "POI_InteresseArcheologico", "poi_label_term": "Villa of Domitian" }, "geometry": { "type": "Point", "coordinates": [ 13.012652, 41.357563 ] } },
{ "type": "Feature", "properties": { "poi_id": "http:\/\/www.futouring.com\/download\/dataset\/futouring_pois.rdf#turismoCulturale_POI_519", "poi _ category _ term": "Castello", "poi_label_term": "Palazzo del principe_Fondi" }, "geometry": { "type": "Point", "coordinates": [ 13.428721, 41.357616 ] } },
{ "type": "Feature", "properties": { "poi_id": "http:\/\/www.futouring.com\/download\/dataset\/futouring_pois.rdf#turismoCulturale_POI_521", "poi _ category _ term": "POI_InteresseArcheologico", "poi_label_term": "Terme Fondi" }, "geometry": { "type": "Point", "coordinates": [ 13.428919, 41.35778 ] } },
{ "type": "Feature", "properties": { "poi_id": "http:\/\/www.futouring.com\/download\/dataset\/futouring_pois.rdf#turismoCulturale_POI_523", "poi _ category _ term": "Chiesa", "poi_label_term": "Cathedral of San Pietro" }, "geometry": { "type": "Point", "coordinates": [ 13.428351, 41.35808 ] } },
{ "type": "Feature", "properties": { "poi_id": "http:\/\/www.futouring.com\/download\/dataset\/futouring_pois.rdf#turismoCulturale_POI_516", "poi _ category _ term": "Museo", "poi_label_term": "Civic Archaeological Museum “October 8th 1877”_Fondi" }, "geometry": { "type": "Point", "coordinates": [ 13.42913, 41.35829 ] } },
{ "type": "Feature", "properties": { "poi_id": "http:\/\/www.futouring.com\/download\/dataset\/futouring_pois.rdf#turismoCulturale_POI_517", "poi _ category _ term": "Castello", "poi_label_term": "Castello_Fondi" }, "geometry": { "type": "Point", "coordinates": [ 13.429123, 41.3583 ] } },
{ "type": "Feature", "properties": { "poi_id": "http:\/\/www.futouring.com\/download\/dataset\/futouring_pois.rdf#turismoCulturale_POI_530", "poi _ category _ term": "Chiesa", "poi_label_term": "Church of the Madonna del Soccorso" }, "geometry": { "type": "Point", "coordinates": [ 13.416388, 41.358612 ] } },
{ "type": "Feature", "properties": { "poi_id": "http:\/\/www.futouring.com\/download\/dataset\/futouring_pois.rdf#turismoCulturale_POI_524", "poi _ category _ term": "Chiesa", "poi_label_term": "Collegiate Church of Santa Maria Assunta" }, "geometry": { "type": "Point", "coordinates": [ 13.4268, 41.35899 ] } },
{ "type": "Feature", "properties": { "poi_id": "http:\/\/www.futouring.com\/download\/dataset\/futouring_pois.rdf#turismoCulturale_POI_522", "poi _ category _ term": "POI_InteresseArcheologico", "poi_label_term": "Mura megalitiche Fondi" }, "geometry": { "type": "Point", "coordinates": [ 13.424188, 41.359035 ] } },
{ "type": "Feature", "properties": { "poi_id": "http:\/\/www.futouring.com\/download\/dataset\/futouring_pois.rdf#turismoCulturale_POI_520", "poi _ category _ term": "POI_InteresseCulturale", "poi_label_term": "Giudea Jewish Quarter or Olmo Perino" }, "geometry": { "type": "Point", "coordinates": [ 13.427203, 41.360645 ] } },
{ "type": "Feature", "properties": { "poi_id": "http:\/\/www.futouring.com\/download\/dataset\/futouring_pois.rdf#turismoCulturale_POI_505", "poi _ category _ term": "POI_InteresseCulturale", "poi_label_term": "Borgo Medievale - Campodimele" }, "geometry": { "type": "Point", "coordinates": [ 13.530338, 41.38973 ] } },
{ "type": "Feature", "properties": { "poi_id": "http:\/\/www.futouring.com\/download\/dataset\/futouring_pois.rdf#turismoCulturale_POI_506", "poi _ category _ term": "POI_InteresseCulturale", "poi_label_term": "Town walls with 12 towers - Campodimele" }, "geometry": { "type": "Point", "coordinates": [ 13.530801, 41.390602 ] } },
{ "type": "Feature", "properties": { "poi_id": "http:\/\/www.futouring.com\/download\/dataset\/futouring_pois.rdf#turismoCulturale_POI_926", "poi _ category _ term": "POI_InteresseArcheologico", "poi_label_term": "Boundary marker between the Papal States and the Kingdom of Naples - Lenola" }, "geometry": { "type": "Point", "coordinates": [ 13.425909, 41.39753 ] } },
{ "type": "Feature", "properties": { "poi_id": "http:\/\/www.futouring.com\/download\/dataset\/futouring_pois.rdf#turismoCulturale_POI_1069", "poi _ category _ term": "Chiesa", "poi_label_term": "Santuario della Madonna del Colle - Lenola" }, "geometry": { "type": "Point", "coordinates": [ 13.46064, 41.405968 ] } },
{ "type": "Feature", "properties": { "poi_id": "http:\/\/www.futouring.com\/download\/dataset\/futouring_pois.rdf#turismoCulturale_POI_927", "poi _ category _ term": "POI_InteresseCulturale", "poi_label_term": "Medieval village - Lenola" }, "geometry": { "type": "Point", "coordinates": [ 13.46079, 41.40912 ] } },
{ "type": "Feature", "properties": { "poi_id": "http:\/\/www.futouring.com\/download\/dataset\/futouring_pois.rdf#turismoCulturale_POI_931", "poi _ category _ term": "Castello", "poi_label_term": "Palazzo baronale - Lenola" }, "geometry": { "type": "Point", "coordinates": [ 13.46079, 41.40912 ] } },
{ "type": "Feature", "properties": { "poi_id": "http:\/\/www.futouring.com\/download\/dataset\/futouring_pois.rdf#turismoCulturale_POI_932", "poi _ category _ term": "POI_InteresseArchitettonico", "poi_label_term": "Medieval fortifications - Lenola" }, "geometry": { "type": "Point", "coordinates": [ 13.46079, 41.40912 ] } },
{ "type": "Feature", "properties": { "poi_id": "http:\/\/www.futouring.com\/download\/dataset\/futouring_pois.rdf#turismoCulturale_POI_933", "poi _ category _ term": "Chiesa", "poi_label_term": "Church of Santa Maria Maggiore - Lenola" }, "geometry": { "type": "Point", "coordinates": [ 13.46079, 41.40912 ] } },
{ "type": "Feature", "properties": { "poi_id": "http:\/\/www.futouring.com\/download\/dataset\/futouring_pois.rdf#turismoCulturale_POI_934", "poi _ category _ term": "Chiesa", "poi_label_term": "Church of San Giovanni Evangelista - Lenola" }, "geometry": { "type": "Point", "coordinates": [ 13.46079, 41.40912 ] } },
{ "type": "Feature", "properties": { "poi_id": "http:\/\/www.futouring.com\/download\/dataset\/futouring_pois.rdf#turismoCulturale_POI_935", "poi _ category _ term": "Chiesa", "poi_label_term": "Madonna delle Benigne Grazie - Lenola" }, "geometry": { "type": "Point", "coordinates": [ 13.45072, 41.419212 ] } },
{ "type": "Feature", "properties": { "poi_id": "http:\/\/www.futouring.com\/download\/dataset\/futouring_pois.rdf#turismoCulturale_POI_240", "poi _ category _ term": "Palazzo", "poi_label_term": "Municipio" }, "geometry": { "type": "Point", "coordinates": [ 12.903443, 41.467022 ] } },
{ "type": "Feature", "properties": { "poi_id": "http:\/\/www.futouring.com\/download\/dataset\/futouring_pois.rdf#turismoCulturale_POI_80", "poi _ category _ term": "POI_InteressePaesaggistico", "poi_label_term": "Grotte di Pastena" }, "geometry": { "type": "Point", "coordinates": [ 13.491227, 41.46953 ] } },
{ "type": "Feature", "properties": { "poi_id": "http:\/\/www.futouring.com\/download\/dataset\/futouring_pois.rdf#turismoCulturale_POI_56", "poi _ category _ term": "POI_InteresseArcheologico", "poi_label_term": "Arch of Mark Antony" }, "geometry": { "type": "Point", "coordinates": [ 13.711541, 41.476948 ] } },
{ "type": "Feature", "properties": { "poi_id": "http:\/\/www.futouring.com\/download\/dataset\/futouring_pois.rdf#turismoCulturale_POI_417", "poi _ category _ term": "Abazia", "poi_label_term": "Abbey of Montecassino" }, "geometry": { "type": "Point", "coordinates": [ 13.813021, 41.488914 ] } },
{ "type": "Feature", "properties": { "poi_id": "http:\/\/www.futouring.com\/download\/dataset\/futouring_pois.rdf#turismoCulturale_POI_2296", "poi _ category _ term": "Abazia", "poi_label_term": "Abbazia di Montecassino" }, "geometry": { "type": "Point", "coordinates": [ 13.813843, 41.490532 ] } },
{ "type": "Feature", "properties": { "poi_id": "http:\/\/www.futouring.com\/download\/dataset\/futouring_pois.rdf#turismoCulturale_POI_438", "poi _ category _ term": "Chiesa", "poi_label_term": "Chiesa di Santa Maria della Libera" }, "geometry": { "type": "Point", "coordinates": [ 13.701917, 41.49767 ] } },
{ "type": "Feature", "properties": { "poi_id": "http:\/\/www.futouring.com\/download\/dataset\/futouring_pois.rdf#turismoCulturale_POI_1480", "poi _ category _ term": "POI_InteresseArcheologico", "poi_label_term": "Foro di Traiano" }, "geometry": { "type": "Point", "coordinates": [ 12.2909, 41.5344 ] } },
{ "type": "Feature", "properties": { "poi_id": "http:\/\/www.futouring.com\/download\/dataset\/futouring_pois.rdf#turismoCulturale_POI_2304", "poi _ category _ term": "Palazzo", "poi_label_term": "Atina, The Palazzo Ducale" }, "geometry": { "type": "Point", "coordinates": [ 13.800623, 41.61986 ] } },
{ "type": "Feature", "properties": { "poi_id": "http:\/\/www.futouring.com\/download\/dataset\/futouring_pois.rdf#turismoCulturale_POI_66", "poi _ category _ term": "POI_InteresseArcheologico", "poi_label_term": "Tempio di Ercole" }, "geometry": { "type": "Point", "coordinates": [ 12.915651, 41.642727 ] } },
{ "type": "Feature", "properties": { "poi_id": "http:\/\/www.futouring.com\/download\/dataset\/futouring_pois.rdf#turismoCulturale_POI_354", "poi _ category _ term": "Abazia", "poi_label_term": "Abbey of Valvisciolo" }, "geometry": { "type": "Point", "coordinates": [ 12.920529, 41.643513 ] } },
{ "type": "Feature", "properties": { "poi_id": "http:\/\/www.futouring.com\/download\/dataset\/futouring_pois.rdf#turismoCulturale_POI_441", "poi _ category _ term": "Castello", "poi_label_term": "Castello Caetani" }, "geometry": { "type": "Point", "coordinates": [ 12.920529, 41.643513 ] } },
{ "type": "Feature", "properties": { "poi_id": "http:\/\/www.futouring.com\/download\/dataset\/futouring_pois.rdf#turismoCulturale_POI_76", "poi _ category _ term": "POI_InteresseArchitettonico", "poi_label_term": "Ruins of Ninfa" }, "geometry": { "type": "Point", "coordinates": [ 12.920529, 41.643513 ] } },
{ "type": "Feature", "properties": { "poi_id": "http:\/\/www.futouring.com\/download\/dataset\/futouring_pois.rdf#turismoCulturale_POI_93", "poi _ category _ term": "EdificioReligioso", "poi_label_term": "Abbey Fossanova" }, "geometry": { "type": "Point", "coordinates": [ 12.920529, 41.643513 ] } },
{ "type": "Feature", "properties": { "poi_id": "http:\/\/www.futouring.com\/download\/dataset\/futouring_pois.rdf#turismoCulturale_POI_2305", "poi _ category _ term": "Chiesa", "poi_label_term": "Arpino, Chiesa di Sant'Andrea" }, "geometry": { "type": "Point", "coordinates": [ 13.614644, 41.64762 ] } },
{ "type": "Feature", "properties": { "poi_id": "http:\/\/www.futouring.com\/download\/dataset\/futouring_pois.rdf#turismoCulturale_POI_2307", "poi _ category _ term": "POI_InteresseArchitettonico", "poi_label_term": "Arpino, Centro storico" }, "geometry": { "type": "Point", "coordinates": [ 13.60987, 41.648445 ] } },
{ "type": "Feature", "properties": { "poi_id": "http:\/\/www.futouring.com\/download\/dataset\/futouring_pois.rdf#turismoCulturale_POI_2306", "poi _ category _ term": "POI_InteresseArchitettonico", "poi_label_term": "Arpino, Civitavecchia" }, "geometry": { "type": "Point", "coordinates": [ 13.618323, 41.649265 ] } },
{ "type": "Feature", "properties": { "poi_id": "http:\/\/www.futouring.com\/download\/dataset\/futouring_pois.rdf#turismoCulturale_POI_2300", "poi _ category _ term": "Abazia", "poi_label_term": "Casamari, Abbazia" }, "geometry": { "type": "Point", "coordinates": [ 13.487188, 41.67118 ] } },
{ "type": "Feature", "properties": { "poi_id": "http:\/\/www.futouring.com\/download\/dataset\/futouring_pois.rdf#turismoCulturale_POI_2323", "poi _ category _ term": "POI_InteresseArchitettonico", "poi_label_term": "Veroli, Centro storico" }, "geometry": { "type": "Point", "coordinates": [ 13.417094, 41.68969 ] } },
{ "type": "Feature", "properties": { "poi_id": "http:\/\/www.futouring.com\/download\/dataset\/futouring_pois.rdf#turismoCulturale_POI_2294", "poi _ category _ term": "Chiesa", "poi_label_term": "Veroli: The Church of Santa Maria dei Franconi" }, "geometry": { "type": "Point", "coordinates": [ 13.418075, 41.69049 ] } },
{ "type": "Feature", "properties": { "poi_id": "http:\/\/www.futouring.com\/download\/dataset\/futouring_pois.rdf#turismoCulturale_POI_351", "poi _ category _ term": "Abazia", "poi_label_term": "Abbazia di Casamari" }, "geometry": { "type": "Point", "coordinates": [ 13.417276, 41.690533 ] } },
{ "type": "Feature", "properties": { "poi_id": "http:\/\/www.futouring.com\/download\/dataset\/futouring_pois.rdf#turismoCulturale_POI_2293", "poi _ category _ term": "Cattedrale", "poi_label_term": "Veroli, Cattedrale di Sant'Andrea" }, "geometry": { "type": "Point", "coordinates": [ 13.417437, 41.690876 ] } },
{ "type": "Feature", "properties": { "poi_id": "http:\/\/www.futouring.com\/download\/dataset\/futouring_pois.rdf#turismoCulturale_POI_2297", "poi _ category _ term": "Chiesa", "poi_label_term": "Ferentino - Santa Maria Maggiore" }, "geometry": { "type": "Point", "coordinates": [ 13.255067, 41.690903 ] } },
{ "type": "Feature", "properties": { "poi_id": "http:\/\/www.futouring.com\/download\/dataset\/futouring_pois.rdf#turismoCulturale_POI_2299", "poi _ category _ term": "POI_InteresseArchitettonico", "poi_label_term": "Ferentino – Old town centre" }, "geometry": { "type": "Point", "coordinates": [ 13.253358, 41.69271 ] } },
{ "type": "Feature", "properties": { "poi_id": "http:\/\/www.futouring.com\/download\/dataset\/futouring_pois.rdf#turismoCulturale_POI_528", "poi _ category _ term": "Chiesa", "poi_label_term": "Chiesa di Santa Maria Maggiore - Ferentino" }, "geometry": { "type": "Point", "coordinates": [ 13.253358, 41.69271 ] } },
{ "type": "Feature", "properties": { "poi_id": "http:\/\/www.futouring.com\/download\/dataset\/futouring_pois.rdf#turismoCulturale_POI_73", "poi _ category _ term": "POI_InteresseArcheologico", "poi_label_term": "Mura e Porte - Ferentino" }, "geometry": { "type": "Point", "coordinates": [ 13.253358, 41.69271 ] } },
{ "type": "Feature", "properties": { "poi_id": "http:\/\/www.futouring.com\/download\/dataset\/futouring_pois.rdf#turismoCulturale_POI_2298", "poi _ category _ term": "Chiesa", "poi_label_term": "Ferentino, Duomo" }, "geometry": { "type": "Point", "coordinates": [ 13.256565, 41.693417 ] } },
{ "type": "Feature", "properties": { "poi_id": "http:\/\/www.futouring.com\/download\/dataset\/futouring_pois.rdf#turismoCulturale_POI_407", "poi _ category _ term": "POI_InteresseArcheologico", "poi_label_term": "Acropolis" }, "geometry": { "type": "Point", "coordinates": [ 13.256565, 41.693417 ] } },
{ "type": "Feature", "properties": { "poi_id": "http:\/\/www.futouring.com\/download\/dataset\/futouring_pois.rdf#turismoCulturale_POI_446", "poi _ category _ term": "Cattedrale", "poi_label_term": "Duomo di Ferentino" }, "geometry": { "type": "Point", "coordinates": [ 13.256565, 41.693417 ] } },
{ "type": "Feature", "properties": { "poi_id": "http:\/\/www.futouring.com\/download\/dataset\/futouring_pois.rdf#turismoCulturale_POI_305", "poi _ category _ term": "Abazia", "poi_label_term": "Church of San Domenico" }, "geometry": { "type": "Point", "coordinates": [ 13.592378, 41.70533 ] } },
{ "type": "Feature", "properties": { "poi_id": "http:\/\/www.futouring.com\/download\/dataset\/futouring_pois.rdf#turismoCulturale_POI_2313", "poi _ category _ term": "Abazia", "poi_label_term": "Alatri, Abbey of St. Sebastian" }, "geometry": { "type": "Point", "coordinates": [ 13.376498, 41.71619 ] } },
{ "type": "Feature", "properties": { "poi_id": "http:\/\/www.futouring.com\/download\/dataset\/futouring_pois.rdf#turismoCulturale_POI_304", "poi _ category _ term": "Cattedrale", "poi_label_term": "Cathedral of Sora" }, "geometry": { "type": "Point", "coordinates": [ 13.617691, 41.71657 ] } },
{ "type": "Feature", "properties": { "poi_id": "http:\/\/www.futouring.com\/download\/dataset\/futouring_pois.rdf#turismoCulturale_POI_2314", "poi _ category _ term": "POI_InteresseArchitettonico", "poi_label_term": "Alatri, centro storico" }, "geometry": { "type": "Point", "coordinates": [ 13.342765, 41.723892 ] } },
{ "type": "Feature", "properties": { "poi_id": "http:\/\/www.futouring.com\/download\/dataset\/futouring_pois.rdf#turismoCulturale_POI_443", "poi _ category _ term": "Palazzo", "poi_label_term": "Gottifredo Palace" }, "geometry": { "type": "Point", "coordinates": [ 13.3437, 41.726063 ] } },
{ "type": "Feature", "properties": { "poi_id": "http:\/\/www.futouring.com\/download\/dataset\/futouring_pois.rdf#turismoCulturale_POI_55", "poi _ category _ term": "POI_InteresseArchitettonico", "poi_label_term": "Palazzo Gottifredo" }, "geometry": { "type": "Point", "coordinates": [ 13.3437, 41.726063 ] } },
{ "type": "Feature", "properties": { "poi_id": "http:\/\/www.futouring.com\/download\/dataset\/futouring_pois.rdf#turismoCulturale_POI_2312", "poi _ category _ term": "Chiesa", "poi_label_term": "Alatri, Chiesa Collegiata di Santa Maria Maggiore" }, "geometry": { "type": "Point", "coordinates": [ 13.342322, 41.72631 ] } },
{ "type": "Feature", "properties": { "poi_id": "http:\/\/www.futouring.com\/download\/dataset\/futouring_pois.rdf#turismoCulturale_POI_54", "poi _ category _ term": "POI_InteresseArcheologico", "poi_label_term": "Acropolis of Alatri" }, "geometry": { "type": "Point", "coordinates": [ 13.34211, 41.726494 ] } },
{ "type": "Feature", "properties": { "poi_id": "http:\/\/www.futouring.com\/download\/dataset\/futouring_pois.rdf#turismoCulturale_POI_2310", "poi _ category _ term": "POI_InteresseArchitettonico", "poi_label_term": "Anagni: the old town" }, "geometry": { "type": "Point", "coordinates": [ 13.159008, 41.742046 ] } },
{ "type": "Feature", "properties": { "poi_id": "http:\/\/www.futouring.com\/download\/dataset\/futouring_pois.rdf#turismoCulturale_POI_449", "poi _ category _ term": "Cattedrale", "poi_label_term": "Cattedrale di Anagni" }, "geometry": { "type": "Point", "coordinates": [ 13.161927, 41.742428 ] } },
{ "type": "Feature", "properties": { "poi_id": "http:\/\/www.futouring.com\/download\/dataset\/futouring_pois.rdf#turismoCulturale_POI_389", "poi _ category _ term": "Palazzo", "poi_label_term": "Palace of Boniface VIII" }, "geometry": { "type": "Point", "coordinates": [ 13.157377, 41.742474 ] } },
{ "type": "Feature", "properties": { "poi_id": "http:\/\/www.futouring.com\/download\/dataset\/futouring_pois.rdf#turismoCulturale_POI_2308", "poi _ category _ term": "Palazzo", "poi_label_term": "The Palace of Boniface VIII" }, "geometry": { "type": "Point", "coordinates": [ 13.160436, 41.74271 ] } },
{ "type": "Feature", "properties": { "poi_id": "http:\/\/www.futouring.com\/download\/dataset\/futouring_pois.rdf#turismoCulturale_POI_2311", "poi _ category _ term": "Cattedrale", "poi_label_term": "Anagni, Cattedrale di Santa Maria Annunziata" }, "geometry": { "type": "Point", "coordinates": [ 13.16208, 41.74273 ] } },
{ "type": "Feature", "properties": { "poi_id": "http:\/\/www.futouring.com\/download\/dataset\/futouring_pois.rdf#turismoCulturale_POI_439", "poi _ category _ term": "POI_InteressePaesaggistico", "poi_label_term": "Grotte di Collepardo" }, "geometry": { "type": "Point", "coordinates": [ 13.368907, 41.75899 ] } },
{ "type": "Feature", "properties": { "poi_id": "http:\/\/www.futouring.com\/download\/dataset\/futouring_pois.rdf#turismoCulturale_POI_440", "poi _ category _ term": "Monastero", "poi_label_term": "Chartreuse of Trisulti" }, "geometry": { "type": "Point", "coordinates": [ 13.370491, 41.76452 ] } },
{ "type": "Feature", "properties": { "poi_id": "http:\/\/www.futouring.com\/download\/dataset\/futouring_pois.rdf#turismoCulturale_POI_25", "poi _ category _ term": "Scavo", "poi_label_term": "Scavi di Ostia Antica" }, "geometry": { "type": "Point", "coordinates": [ 12.306305, 41.775536 ] } },
{ "type": "Feature", "properties": { "poi_id": "http:\/\/www.futouring.com\/download\/dataset\/futouring_pois.rdf#turismoCulturale_POI_2301", "poi _ category _ term": "Chiesa", "poi_label_term": "Vico nel Lazio: The Church of Santa Maria" }, "geometry": { "type": "Point", "coordinates": [ 13.342501, 41.77801 ] } },
{ "type": "Feature", "properties": { "poi_id": "http:\/\/www.futouring.com\/download\/dataset\/futouring_pois.rdf#turismoCulturale_POI_2292", "poi _ category _ term": "Castello", "poi_label_term": "Vico nel Lazio, Fortificazioni medioevali" }, "geometry": { "type": "Point", "coordinates": [ 13.341741, 41.77815 ] } },
{ "type": "Feature", "properties": { "poi_id": "http:\/\/www.futouring.com\/download\/dataset\/futouring_pois.rdf#turismoCulturale_POI_400", "poi _ category _ term": "POI_InteresseArchitettonico", "poi_label_term": "Quartiere INCIS a Decima" }, "geometry": { "type": "Point", "coordinates": [ 12.440986, 41.818954 ] } },
{ "type": "Feature", "properties": { "poi_id": "http:\/\/www.futouring.com\/download\/dataset\/futouring_pois.rdf#turismoCulturale_POI_1446", "poi _ category _ term": "POI_InteresseArchitettonico", "poi_label_term": "Palazzo dello Sport" }, "geometry": { "type": "Point", "coordinates": [ 12.466574, 41.8253 ] } },
{ "type": "Feature", "properties": { "poi_id": "http:\/\/www.futouring.com\/download\/dataset\/futouring_pois.rdf#turismoCulturale_POI_1799", "poi _ category _ term": "Villa", "poi_label_term": "Villa papale della Magliana" }, "geometry": { "type": "Point", "coordinates": [ 12.41757, 41.82802 ] } },
{ "type": "Feature", "properties": { "poi_id": "http:\/\/www.futouring.com\/download\/dataset\/futouring_pois.rdf#turismoCulturale_POI_501", "poi _ category _ term": "POI_InteresseCulturale", "poi_label_term": "EUR- Palazzo dello Sport- L’Ultimo bacio" }, "geometry": { "type": "Point", "coordinates": [ 12.467675, 41.8286 ] } },
{ "type": "Feature", "properties": { "poi_id": "http:\/\/www.futouring.com\/download\/dataset\/futouring_pois.rdf#turismoCulturale_POI_397", "poi _ category _ term": "POI_InteresseArchitettonico", "poi_label_term": "EUR - E.42" }, "geometry": { "type": "Point", "coordinates": [ 12.470844, 41.833527 ] } },
{ "type": "Feature", "properties": { "poi_id": "http:\/\/www.futouring.com\/download\/dataset\/futouring_pois.rdf#turismoCulturale_POI_405", "poi _ category _ term": "Chiesa", "poi_label_term": "Chiesa dei Santi Pietro e Paolo" }, "geometry": { "type": "Point", "coordinates": [ 12.459197, 41.833637 ] } },
{ "type": "Feature", "properties": { "poi_id": "http:\/\/www.futouring.com\/download\/dataset\/futouring_pois.rdf#turismoCulturale_POI_479", "poi _ category _ term": "POI_InteresseCulturale", "poi_label_term": "EUR – Boccaccio '70 (episodio Le tentazioni del  dottor Antonio)" }, "geometry": { "type": "Point", "coordinates": [ 12.459197, 41.833637 ] } },
{ "type": "Feature", "properties": { "poi_id": "http:\/\/www.futouring.com\/download\/dataset\/futouring_pois.rdf#turismoCulturale_POI_235", "poi _ category _ term": "POI_InteresseArcheologico", "poi_label_term": "Sanctuary of Fortuna Primigenia" }, "geometry": { "type": "Point", "coordinates": [ 12.892235, 41.840393 ] } },
{ "type": "Feature", "properties": { "poi_id": "http:\/\/www.futouring.com\/download\/dataset\/futouring_pois.rdf#turismoCulturale_POI_1502", "poi _ category _ term": "POI_InteresseArchitettonico", "poi_label_term": "Piazza dell’AraCoeli" }, "geometry": { "type": "Point", "coordinates": [ 12.481028, 41.84403 ] } },
{ "type": "Feature", "properties": { "poi_id": "http:\/\/www.futouring.com\/download\/dataset\/futouring_pois.rdf#turismoCulturale_POI_776", "poi _ category _ term": "POI_InteresseCulturale", "poi_label_term": "Via Appia, Sepolcro di Cecilia Metella" }, "geometry": { "type": "Point", "coordinates": [ 12.52088, 41.85187 ] } },
{ "type": "Feature", "properties": { "poi_id": "http:\/\/www.futouring.com\/download\/dataset\/futouring_pois.rdf#turismoCulturale_POI_1284", "poi _ category _ term": "EdificioReligioso", "poi_label_term": "San Sebastiano" }, "geometry": { "type": "Point", "coordinates": [ 12.515556, 41.855556 ] } },
{ "type": "Feature", "properties": { "poi_id": "http:\/\/www.futouring.com\/download\/dataset\/futouring_pois.rdf#turismoCulturale_POI_1980", "poi _ category _ term": "POI_InteresseArchitettonico", "poi_label_term": "INA Casa Tuscolana" }, "geometry": { "type": "Point", "coordinates": [ 12.55025, 41.85701 ] } },
{ "type": "Feature", "properties": { "poi_id": "http:\/\/www.futouring.com\/download\/dataset\/futouring_pois.rdf#turismoCulturale_POI_359", "poi _ category _ term": "Chiesa", "poi_label_term": "Basilica of San Paolo fuori le mura" }, "geometry": { "type": "Point", "coordinates": [ 12.47758, 41.85742 ] } },
{ "type": "Feature", "properties": { "poi_id": "http:\/\/www.futouring.com\/download\/dataset\/futouring_pois.rdf#turismoCulturale_POI_504", "poi _ category _ term": "POI_InteresseCulturale", "poi_label_term": "Ina-Casa Tuscolano - Mamma Roma" }, "geometry": { "type": "Point", "coordinates": [ 12.555, 41.857777 ] } },
{ "type": "Feature", "properties": { "poi_id": "http:\/\/www.futouring.com\/download\/dataset\/futouring_pois.rdf#turismoCulturale_POI_1684", "poi _ category _ term": "POI_InteresseCulturale", "poi_label_term": "Johannipolis" }, "geometry": { "type": "Point", "coordinates": [ 12.477222, 41.858612 ] } },
{ "type": "Feature", "properties": { "poi_id": "http:\/\/www.futouring.com\/download\/dataset\/futouring_pois.rdf#turismoCulturale_POI_1688", "poi _ category _ term": "POI_InteresseCulturale", "poi_label_term": "Basilica di San Paolo fuori le mura" }, "geometry": { "type": "Point", "coordinates": [ 12.477222, 41.858612 ] } },
{ "type": "Feature", "properties": { "poi_id": "http:\/\/www.futouring.com\/download\/dataset\/futouring_pois.rdf#turismoCulturale_POI_470", "poi _ category _ term": "POI_InteresseCulturale", "poi_label_term": "Don Bosco – Fantasmi a Roma" }, "geometry": { "type": "Point", "coordinates": [ 12.565, 41.85889 ] } },
{ "type": "Feature", "properties": { "poi_id": "http:\/\/www.futouring.com\/download\/dataset\/futouring_pois.rdf#turismoCulturale_POI_411", "poi _ category _ term": "Chiesa", "poi_label_term": "Chiesa di San Giovanni Bosco" }, "geometry": { "type": "Point", "coordinates": [ 12.565278, 41.85889 ] } },
{ "type": "Feature", "properties": { "poi_id": "http:\/\/www.futouring.com\/download\/dataset\/futouring_pois.rdf#turismoCulturale_POI_396", "poi _ category _ term": "POI_InteresseArchitettonico", "poi_label_term": "Garbatella" }, "geometry": { "type": "Point", "coordinates": [ 12.488153, 41.860546 ] } },
{ "type": "Feature", "properties": { "poi_id": "http:\/\/www.futouring.com\/download\/dataset\/futouring_pois.rdf#turismoCulturale_POI_484", "poi _ category _ term": "POI_InteresseCulturale", "poi_label_term": "Garbatella – Caro diario" }, "geometry": { "type": "Point", "coordinates": [ 12.488153, 41.860546 ] } },
{ "type": "Feature", "properties": { "poi_id": "http:\/\/www.futouring.com\/download\/dataset\/futouring_pois.rdf#turismoCulturale_POI_454", "poi _ category _ term": "POI_InteresseCulturale", "poi_label_term": "Gasometro nel cinema" }, "geometry": { "type": "Point", "coordinates": [ 12.474722, 41.869167 ] } },
{ "type": "Feature", "properties": { "poi_id": "http:\/\/www.futouring.com\/download\/dataset\/futouring_pois.rdf#turismoCulturale_POI_486", "poi _ category _ term": "POI_InteresseCulturale", "poi_label_term": "Gasometro - Bellissima" }, "geometry": { "type": "Point", "coordinates": [ 12.474167, 41.869446 ] } },
{ "type": "Feature", "properties": { "poi_id": "http:\/\/www.futouring.com\/download\/dataset\/futouring_pois.rdf#turismoCulturale_POI_340", "poi _ category _ term": "POI_InteresseArchitettonico", "poi_label_term": "Ponte dell’Industria" }, "geometry": { "type": "Point", "coordinates": [ 12.471667, 41.871666 ] } },
{ "type": "Feature", "properties": { "poi_id": "http:\/\/www.futouring.com\/download\/dataset\/futouring_pois.rdf#turismoCulturale_POI_808", "poi _ category _ term": "POI_InteresseCulturale", "poi_label_term": "Veduta del porto di Ripa Grande con battelli" }, "geometry": { "type": "Point", "coordinates": [ 12.47576, 41.87327 ] } },
{ "type": "Feature", "properties": { "poi_id": "http:\/\/www.futouring.com\/download\/dataset\/futouring_pois.rdf#turismoCulturale_POI_1296", "poi _ category _ term": "POI_InteresseArcheologico", "poi_label_term": "Porta Ardeatina" }, "geometry": { "type": "Point", "coordinates": [ 12.49711, 41.87329 ] } },
{ "type": "Feature", "properties": { "poi_id": "http:\/\/www.futouring.com\/download\/dataset\/futouring_pois.rdf#turismoCulturale_POI_1293", "poi _ category _ term": "POI_InteresseArcheologico", "poi_label_term": "Porta Latina" }, "geometry": { "type": "Point", "coordinates": [ 12.50154, 41.87345 ] } },
{ "type": "Feature", "properties": { "poi_id": "http:\/\/www.futouring.com\/download\/dataset\/futouring_pois.rdf#turismoCulturale_POI_1885", "poi _ category _ term": "POI_InteresseCulturale", "poi_label_term": "Via Latina" }, "geometry": { "type": "Point", "coordinates": [ 12.50154, 41.87345 ] } },
{ "type": "Feature", "properties": { "poi_id": "http:\/\/www.futouring.com\/download\/dataset\/futouring_pois.rdf#turismoCulturale_POI_1295", "poi _ category _ term": "POI_InteresseArcheologico", "poi_label_term": "Porta Appia o San Sebastiano" }, "geometry": { "type": "Point", "coordinates": [ 12.50154, 41.87347 ] } },
{ "type": "Feature", "properties": { "poi_id": "http:\/\/www.futouring.com\/download\/dataset\/futouring_pois.rdf#turismoCulturale_POI_1768", "poi _ category _ term": "POI_InteresseCulturale", "poi_label_term": "Emporium" }, "geometry": { "type": "Point", "coordinates": [ 12.471717, 41.874084 ] } },
{ "type": "Feature", "properties": { "poi_id": "http:\/\/www.futouring.com\/download\/dataset\/futouring_pois.rdf#turismoCulturale_POI_2088", "poi _ category _ term": "POI_InteresseArchitettonico", "poi_label_term": "Bastioni del Sangallo" }, "geometry": { "type": "Point", "coordinates": [ 12.49273, 41.87409 ] } },
{ "type": "Feature", "properties": { "poi_id": "http:\/\/www.futouring.com\/download\/dataset\/futouring_pois.rdf#turismoCulturale_POI_811", "poi _ category _ term": "POI_InteresseCulturale", "poi_label_term": "Porta San Paolo con la Piramide di Caio Cestio" }, "geometry": { "type": "Point", "coordinates": [ 12.48235, 41.87572 ] } },
{ "type": "Feature", "properties": { "poi_id": "http:\/\/www.futouring.com\/download\/dataset\/futouring_pois.rdf#turismoCulturale_POI_1731", "poi _ category _ term": "POI_InteresseCulturale", "poi_label_term": "Via Ostiense" }, "geometry": { "type": "Point", "coordinates": [ 12.87644, 41.87644 ] } },
{ "type": "Feature", "properties": { "poi_id": "http:\/\/www.futouring.com\/download\/dataset\/futouring_pois.rdf#turismoCulturale_POI_1819", "poi _ category _ term": "Monumento", "poi_label_term": "Piramide Cestia" }, "geometry": { "type": "Point", "coordinates": [ 12.48088, 41.8765 ] } },
{ "type": "Feature", "properties": { "poi_id": "http:\/\/www.futouring.com\/download\/dataset\/futouring_pois.rdf#turismoCulturale_POI_1297", "poi _ category _ term": "POI_InteresseArcheologico", "poi_label_term": "Porta Ostiensis o porta San Paolo" }, "geometry": { "type": "Point", "coordinates": [ 12.481469, 41.87667 ] } },
{ "type": "Feature", "properties": { "poi_id": "http:\/\/www.futouring.com\/download\/dataset\/futouring_pois.rdf#turismoCulturale_POI_1535", "poi _ category _ term": "POI_InteresseArchitettonico", "poi_label_term": "Casina detta del Cardinale Bessarione" }, "geometry": { "type": "Point", "coordinates": [ 12.499171, 41.877182 ] } },
{ "type": "Feature", "properties": { "poi_id": "http:\/\/www.futouring.com\/download\/dataset\/futouring_pois.rdf#turismoCulturale_POI_1341", "poi _ category _ term": "Chiesa", "poi_label_term": "San Giovanni a Porta Latina" }, "geometry": { "type": "Point", "coordinates": [ 12.501803, 41.87731 ] } },
{ "type": "Feature", "properties": { "poi_id": "http:\/\/www.futouring.com\/download\/dataset\/futouring_pois.rdf#turismoCulturale_POI_1820", "poi _ category _ term": "Palazzo", "poi_label_term": "Ufficio Postale di Via Marmorata" }, "geometry": { "type": "Point", "coordinates": [ 12.48008, 41.87771 ] } },
{ "type": "Feature", "properties": { "poi_id": "http:\/\/www.futouring.com\/download\/dataset\/futouring_pois.rdf#turismoCulturale_POI_1845", "poi _ category _ term": "POI_InteresseCulturale", "poi_label_term": "Via Appia" }, "geometry": { "type": "Point", "coordinates": [ 12.49616, 41.8794 ] } },
{ "type": "Feature", "properties": { "poi_id": "http:\/\/www.futouring.com\/download\/dataset\/futouring_pois.rdf#turismoCulturale_POI_1369", "poi _ category _ term": "Terme", "poi_label_term": "Terme di Caracalla" }, "geometry": { "type": "Point", "coordinates": [ 12.493056, 41.879444 ] } },
{ "type": "Feature", "properties": { "poi_id": "http:\/\/www.futouring.com\/download\/dataset\/futouring_pois.rdf#turismoCulturale_POI_1337", "poi _ category _ term": "Chiesa", "poi_label_term": "San Cesareo de Appia" }, "geometry": { "type": "Point", "coordinates": [ 12.49631, 41.87949 ] } },
{ "type": "Feature", "properties": { "poi_id": "http:\/\/www.futouring.com\/download\/dataset\/futouring_pois.rdf#turismoCulturale_POI_1773", "poi _ category _ term": "POI_InteresseCulturale", "poi_label_term": "Porticus Aemilia" }, "geometry": { "type": "Point", "coordinates": [ 12.473092, 41.879528 ] } },
{ "type": "Feature", "properties": { "poi_id": "http:\/\/www.futouring.com\/download\/dataset\/futouring_pois.rdf#turismoCulturale_POI_1496", "poi _ category _ term": "POI_InteresseCulturale", "poi_label_term": "Rione Testaccio" }, "geometry": { "type": "Point", "coordinates": [ 12.47431, 41.87998 ] } },
{ "type": "Feature", "properties": { "poi_id": "http:\/\/www.futouring.com\/download\/dataset\/futouring_pois.rdf#turismoCulturale_POI_1698", "poi _ category _ term": "Chiesa", "poi_label_term": "Santi Nereo ed Achilleo" }, "geometry": { "type": "Point", "coordinates": [ 12.494778, 41.880222 ] } },
{ "type": "Feature", "properties": { "poi_id": "http:\/\/www.futouring.com\/download\/dataset\/futouring_pois.rdf#turismoCulturale_POI_1339", "poi _ category _ term": "Chiesa", "poi_label_term": "Santa Balbina" }, "geometry": { "type": "Point", "coordinates": [ 12.489288, 41.880642 ] } },
{ "type": "Feature", "properties": { "poi_id": "http:\/\/www.futouring.com\/download\/dataset\/futouring_pois.rdf#turismoCulturale_POI_646", "poi _ category _ term": "POI_InteresseCulturale", "poi_label_term": "Borgo Angelico" }, "geometry": { "type": "Point", "coordinates": [ 12.475321, 41.88193 ] } },
{ "type": "Feature", "properties": { "poi_id": "http:\/\/www.futouring.com\/download\/dataset\/futouring_pois.rdf#turismoCulturale_POI_659", "poi _ category _ term": "POI_InteresseCulturale", "poi_label_term": "Santa Sabina" }, "geometry": { "type": "Point", "coordinates": [ 12.475321, 41.88193 ] } },
{ "type": "Feature", "properties": { "poi_id": "http:\/\/www.futouring.com\/download\/dataset\/futouring_pois.rdf#turismoCulturale_POI_660", "poi _ category _ term": "POI_InteresseCulturale", "poi_label_term": "La via Rua" }, "geometry": { "type": "Point", "coordinates": [ 12.475321, 41.88193 ] } },
{ "type": "Feature", "properties": { "poi_id": "http:\/\/www.futouring.com\/download\/dataset\/futouring_pois.rdf#turismoCulturale_POI_661", "poi _ category _ term": "POI_InteresseCulturale", "poi_label_term": "La chiesa del Salvatore presso Ponte rotto" }, "geometry": { "type": "Point", "coordinates": [ 12.475321, 41.88193 ] } },
{ "type": "Feature", "properties": { "poi_id": "http:\/\/www.futouring.com\/download\/dataset\/futouring_pois.rdf#turismoCulturale_POI_662", "poi _ category _ term": "POI_InteresseCulturale", "poi_label_term": "La  cosiddetta “casa di Cola di Rienzo”" }, "geometry": { "type": "Point", "coordinates": [ 12.475321, 41.88193 ] } },
{ "type": "Feature", "properties": { "poi_id": "http:\/\/www.futouring.com\/download\/dataset\/futouring_pois.rdf#turismoCulturale_POI_663", "poi _ category _ term": "POI_InteresseCulturale", "poi_label_term": "La rocca dei Santi Quattro Coronati" }, "geometry": { "type": "Point", "coordinates": [ 12.475321, 41.88193 ] } },
{ "type": "Feature", "properties": { "poi_id": "http:\/\/www.futouring.com\/download\/dataset\/futouring_pois.rdf#turismoCulturale_POI_664", "poi _ category _ term": "POI_InteresseCulturale", "poi_label_term": "Piazza Barberini" }, "geometry": { "type": "Point", "coordinates": [ 12.475321, 41.88193 ] } },
{ "type": "Feature", "properties": { "poi_id": "http:\/\/www.futouring.com\/download\/dataset\/futouring_pois.rdf#turismoCulturale_POI_665", "poi _ category _ term": "POI_InteresseCulturale", "poi_label_term": "Palazzo di Bindo Altoviti presso Ponte Sant’Angelo" }, "geometry": { "type": "Point", "coordinates": [ 12.475321, 41.88193 ] } },
{ "type": "Feature", "properties": { "poi_id": "http:\/\/www.futouring.com\/download\/dataset\/futouring_pois.rdf#turismoCulturale_POI_666", "poi _ category _ term": "POI_InteresseCulturale", "poi_label_term": "Torre di Paolo III sul Campidoglio" }, "geometry": { "type": "Point", "coordinates": [ 12.475321, 41.88193 ] } },
{ "type": "Feature", "properties": { "poi_id": "http:\/\/www.futouring.com\/download\/dataset\/futouring_pois.rdf#turismoCulturale_POI_667", "poi _ category _ term": "POI_InteresseCulturale", "poi_label_term": "Posterula delle mura onoriane a via Giulia" }, "geometry": { "type": "Point", "coordinates": [ 12.475321, 41.88193 ] } },
{ "type": "Feature", "properties": { "poi_id": "http:\/\/www.futouring.com\/download\/dataset\/futouring_pois.rdf#turismoCulturale_POI_1338", "poi _ category _ term": "Chiesa", "poi_label_term": "Chiesa dei Santi Bonifacio e Alessio" }, "geometry": { "type": "Point", "coordinates": [ 12.47823, 41.882 ] } },
{ "type": "Feature", "properties": { "poi_id": "http:\/\/www.futouring.com\/download\/dataset\/futouring_pois.rdf#turismoCulturale_POI_1292", "poi _ category _ term": "POI_InteresseArcheologico", "poi_label_term": "Porta Metronia o Metrovia" }, "geometry": { "type": "Point", "coordinates": [ 12.49869, 41.88231 ] } },
{ "type": "Feature", "properties": { "poi_id": "http:\/\/www.futouring.com\/download\/dataset\/futouring_pois.rdf#turismoCulturale_POI_1403", "poi _ category _ term": "Terme", "poi_label_term": "Terme Deciane" }, "geometry": { "type": "Point", "coordinates": [ 12.48159, 41.88244 ] } },
{ "type": "Feature", "properties": { "poi_id": "http:\/\/www.futouring.com\/download\/dataset\/futouring_pois.rdf#turismoCulturale_POI_1436", "poi _ category _ term": "Palazzo", "poi_label_term": "Palazzo della FAO" }, "geometry": { "type": "Point", "coordinates": [ 12.48782, 41.88253 ] } },
{ "type": "Feature", "properties": { "poi_id": "http:\/\/www.futouring.com\/download\/dataset\/futouring_pois.rdf#turismoCulturale_POI_1687", "poi _ category _ term": "Chiesa", "poi_label_term": "Santa Prisca" }, "geometry": { "type": "Point", "coordinates": [ 12.483961, 41.883045 ] } },
{ "type": "Feature", "properties": { "poi_id": "http:\/\/www.futouring.com\/download\/dataset\/futouring_pois.rdf#turismoCulturale_POI_347", "poi _ category _ term": "POI_InteresseArchitettonico", "poi_label_term": "Ponte Sublicio o Aventino" }, "geometry": { "type": "Point", "coordinates": [ 12.475, 41.88333 ] } },
{ "type": "Feature", "properties": { "poi_id": "http:\/\/www.futouring.com\/download\/dataset\/futouring_pois.rdf#turismoCulturale_POI_1945", "poi _ category _ term": "EdificioReligioso", "poi_label_term": "Santuario Siriaco" }, "geometry": { "type": "Point", "coordinates": [ 12.46617, 41.88357 ] } },
{ "type": "Feature", "properties": { "poi_id": "http:\/\/www.futouring.com\/download\/dataset\/futouring_pois.rdf#turismoCulturale_POI_1300", "poi _ category _ term": "POI_InteresseArcheologico", "poi_label_term": "Porta Portuensis" }, "geometry": { "type": "Point", "coordinates": [ 12.474022, 41.8839 ] } },
{ "type": "Feature", "properties": { "poi_id": "http:\/\/www.futouring.com\/download\/dataset\/futouring_pois.rdf#turismoCulturale_POI_1301", "poi _ category _ term": "POI_InteresseArcheologico", "poi_label_term": "Porta Septimiana" }, "geometry": { "type": "Point", "coordinates": [ 12.474022, 41.8839 ] } },
{ "type": "Feature", "properties": { "poi_id": "http:\/\/www.futouring.com\/download\/dataset\/futouring_pois.rdf#turismoCulturale_POI_1269", "poi _ category _ term": "POI_InteresseArcheologico", "poi_label_term": "Porta Capena" }, "geometry": { "type": "Point", "coordinates": [ 12.48948, 41.88421 ] } },
{ "type": "Feature", "properties": { "poi_id": "http:\/\/www.futouring.com\/download\/dataset\/futouring_pois.rdf#turismoCulturale_POI_1989", "poi _ category _ term": "POI_InteresseCulturale", "poi_label_term": "Aventino" }, "geometry": { "type": "Point", "coordinates": [ 12.47999, 41.88434 ] } },
{ "type": "Feature", "properties": { "poi_id": "http:\/\/www.futouring.com\/download\/dataset\/futouring_pois.rdf#turismoCulturale_POI_577", "poi _ category _ term": "POI_InteresseCulturale", "poi_label_term": "Ripa Grande - Risate di gioia" }, "geometry": { "type": "Point", "coordinates": [ 12.475, 41.884445 ] } },
{ "type": "Feature", "properties": { "poi_id": "http:\/\/www.futouring.com\/download\/dataset\/futouring_pois.rdf#turismoCulturale_POI_1510", "poi _ category _ term": "Chiesa", "poi_label_term": "Santa Sabina" }, "geometry": { "type": "Point", "coordinates": [ 12.479722, 41.884445 ] } },
{ "type": "Feature", "properties": { "poi_id": "http:\/\/www.futouring.com\/download\/dataset\/futouring_pois.rdf#turismoCulturale_POI_1287", "poi _ category _ term": "Chiesa", "poi_label_term": "Santo Stefano Rotondo" }, "geometry": { "type": "Point", "coordinates": [ 12.496667, 41.884445 ] } },
{ "type": "Feature", "properties": { "poi_id": "http:\/\/www.futouring.com\/download\/dataset\/futouring_pois.rdf#turismoCulturale_POI_1552", "poi _ category _ term": "Torre", "poi_label_term": "Torre del Circo Massimo o della Moletta" }, "geometry": { "type": "Point", "coordinates": [ 12.48836, 41.88466 ] } },
{ "type": "Feature", "properties": { "poi_id": "http:\/\/www.futouring.com\/download\/dataset\/futouring_pois.rdf#turismoCulturale_POI_1982", "poi _ category _ term": "Chiesa", "poi_label_term": "San Francesco a Ripa" }, "geometry": { "type": "Point", "coordinates": [ 12.472778, 41.884724 ] } },
{ "type": "Feature", "properties": { "poi_id": "http:\/\/www.futouring.com\/download\/dataset\/futouring_pois.rdf#turismoCulturale_POI_1697", "poi _ category _ term": "Chiesa", "poi_label_term": "Santa Maria in Domnica" }, "geometry": { "type": "Point", "coordinates": [ 12.495556, 41.884724 ] } },
{ "type": "Feature", "properties": { "poi_id": "http:\/\/www.futouring.com\/download\/dataset\/futouring_pois.rdf#turismoCulturale_POI_375", "poi _ category _ term": "Fontana", "poi_label_term": "Fontana della Navicella" }, "geometry": { "type": "Point", "coordinates": [ 12.495833, 41.884724 ] } },
{ "type": "Feature", "properties": { "poi_id": "http:\/\/www.futouring.com\/download\/dataset\/futouring_pois.rdf#turismoCulturale_POI_1325", "poi _ category _ term": "POI_InteresseCulturale", "poi_label_term": "Ripa Grande" }, "geometry": { "type": "Point", "coordinates": [ 12.476117, 41.884727 ] } },
{ "type": "Feature", "properties": { "poi_id": "http:\/\/www.futouring.com\/download\/dataset\/futouring_pois.rdf#turismoCulturale_POI_273", "poi _ category _ term": "POI_InteresseArchitettonico", "poi_label_term": "La chiesa di San Francesco a Ripa a Roma" }, "geometry": { "type": "Point", "coordinates": [ 12.4732, 41.8852 ] } },
{ "type": "Feature", "properties": { "poi_id": "http:\/\/www.futouring.com\/download\/dataset\/futouring_pois.rdf#turismoCulturale_POI_1514", "poi _ category _ term": "Chiesa", "poi_label_term": "San Sisto Vecchio" }, "geometry": { "type": "Point", "coordinates": [ 12.49576, 41.885303 ] } },
{ "type": "Feature", "properties": { "poi_id": "http:\/\/www.futouring.com\/download\/dataset\/futouring_pois.rdf#turismoCulturale_POI_1278", "poi _ category _ term": "Chiesa", "poi_label_term": "Santi Gregorio e Andrea al Celio e Biblioteca di Agapito" }, "geometry": { "type": "Point", "coordinates": [ 12.49043, 41.88541 ] } },
{ "type": "Feature", "properties": { "poi_id": "http:\/\/www.futouring.com\/download\/dataset\/futouring_pois.rdf#turismoCulturale_POI_1271", "poi _ category _ term": "POI_InteresseArcheologico", "poi_label_term": "Porta Caelimontana  e Arco di Dolabella e Silano" }, "geometry": { "type": "Point", "coordinates": [ 12.49545, 41.88542 ] } },
{ "type": "Feature", "properties": { "poi_id": "http:\/\/www.futouring.com\/download\/dataset\/futouring_pois.rdf#turismoCulturale_POI_1883", "poi _ category _ term": "POI_InteresseCulturale", "poi_label_term": "Via Caelimontana" }, "geometry": { "type": "Point", "coordinates": [ 12.49545, 41.88542 ] } },
{ "type": "Feature", "properties": { "poi_id": "http:\/\/www.futouring.com\/download\/dataset\/futouring_pois.rdf#turismoCulturale_POI_402", "poi _ category _ term": "Palazzo", "poi_label_term": "Casa Papanice" }, "geometry": { "type": "Point", "coordinates": [ 12.461208, 41.885494 ] } },
{ "type": "Feature", "properties": { "poi_id": "http:\/\/www.futouring.com\/download\/dataset\/futouring_pois.rdf#turismoCulturale_POI_1291", "poi _ category _ term": "POI_InteresseArcheologico", "poi_label_term": "Porta Asinaria" }, "geometry": { "type": "Point", "coordinates": [ 12.50862, 41.88573 ] } },
{ "type": "Feature", "properties": { "poi_id": "http:\/\/www.futouring.com\/download\/dataset\/futouring_pois.rdf#turismoCulturale_POI_1723", "poi _ category _ term": "POI_InteresseCulturale", "poi_label_term": "Via Asinaria" }, "geometry": { "type": "Point", "coordinates": [ 12.50859, 41.88582 ] } },
{ "type": "Feature", "properties": { "poi_id": "http:\/\/www.futouring.com\/download\/dataset\/futouring_pois.rdf#turismoCulturale_POI_1356", "poi _ category _ term": "POI_InteresseArchitettonico", "poi_label_term": "Porta San Giovanni" }, "geometry": { "type": "Point", "coordinates": [ 12.50935, 41.88589 ] } },
{ "type": "Feature", "properties": { "poi_id": "http:\/\/www.futouring.com\/download\/dataset\/futouring_pois.rdf#turismoCulturale_POI_2004", "poi _ category _ term": "POI_InteresseArchitettonico", "poi_label_term": "Circo Massimo" }, "geometry": { "type": "Point", "coordinates": [ 12.485704, 41.885906 ] } },
{ "type": "Feature", "properties": { "poi_id": "http:\/\/www.futouring.com\/download\/dataset\/futouring_pois.rdf#turismoCulturale_POI_1290", "poi _ category _ term": "EdificioReligioso", "poi_label_term": "San Giovanni in Laterano" }, "geometry": { "type": "Point", "coordinates": [ 12.506154, 41.885906 ] } },
{ "type": "Feature", "properties": { "poi_id": "http:\/\/www.futouring.com\/download\/dataset\/futouring_pois.rdf#turismoCulturale_POI_1294", "poi _ category _ term": "Chiesa", "poi_label_term": "Battistero di San Giovanni in Laterano" }, "geometry": { "type": "Point", "coordinates": [ 12.50435, 41.88615 ] } },
{ "type": "Feature", "properties": { "poi_id": "http:\/\/www.futouring.com\/download\/dataset\/futouring_pois.rdf#turismoCulturale_POI_769", "poi _ category _ term": "POI_InteresseCulturale", "poi_label_term": "Sponda sinistra del Tevere all'altezza della chiesa di Santa Maria Cosmedin prima della costruzione dei muraglioni" }, "geometry": { "type": "Point", "coordinates": [ 12.47788, 41.88628 ] } },
{ "type": "Feature", "properties": { "poi_id": "http:\/\/www.futouring.com\/download\/dataset\/futouring_pois.rdf#turismoCulturale_POI_1508", "poi _ category _ term": "POI_InteresseArchitettonico", "poi_label_term": "Ospedale Lateranense" }, "geometry": { "type": "Point", "coordinates": [ 12.50352, 41.8865 ] } },
{ "type": "Feature", "properties": { "poi_id": "http:\/\/www.futouring.com\/download\/dataset\/futouring_pois.rdf#turismoCulturale_POI_1694", "poi _ category _ term": "Chiesa", "poi_label_term": "Santi Giovanni e Paolo" }, "geometry": { "type": "Point", "coordinates": [ 12.492634, 41.886513 ] } },
{ "type": "Feature", "properties": { "poi_id": "http:\/\/www.futouring.com\/download\/dataset\/futouring_pois.rdf#turismoCulturale_POI_554", "poi _ category _ term": "POI_InteresseCulturale", "poi_label_term": "Pigneto - Accattone" }, "geometry": { "type": "Point", "coordinates": [ 12.535144, 41.886593 ] } },
{ "type": "Feature", "properties": { "poi_id": "http:\/\/www.futouring.com\/download\/dataset\/futouring_pois.rdf#turismoCulturale_POI_1345", "poi _ category _ term": "Chiesa", "poi_label_term": "San Cosimato" }, "geometry": { "type": "Point", "coordinates": [ 12.46941, 41.88675 ] } },
{ "type": "Feature", "properties": { "poi_id": "http:\/\/www.futouring.com\/download\/dataset\/futouring_pois.rdf#turismoCulturale_POI_1542", "poi _ category _ term": "POI_InteresseArchitettonico", "poi_label_term": "Casa di fronte a Santa Cecilia" }, "geometry": { "type": "Point", "coordinates": [ 12.476884, 41.887074 ] } },
{ "type": "Feature", "properties": { "poi_id": "http:\/\/www.futouring.com\/download\/dataset\/futouring_pois.rdf#turismoCulturale_POI_1913", "poi _ category _ term": "Palazzo", "poi_label_term": "Manifattura Tabacchi e il quartiere Mastai" }, "geometry": { "type": "Point", "coordinates": [ 12.473022, 41.8872 ] } },
{ "type": "Feature", "properties": { "poi_id": "http:\/\/www.futouring.com\/download\/dataset\/futouring_pois.rdf#turismoCulturale_POI_1361", "poi _ category _ term": "Obelisco", "poi_label_term": "Obelisco Lateranense" }, "geometry": { "type": "Point", "coordinates": [ 12.50488, 41.88732 ] } },
{ "type": "Feature", "properties": { "poi_id": "http:\/\/www.futouring.com\/download\/dataset\/futouring_pois.rdf#turismoCulturale_POI_1788", "poi _ category _ term": "Villa", "poi_label_term": "Villa Pamphilj" }, "geometry": { "type": "Point", "coordinates": [ 12.45051, 41.88752 ] } },